PREFIXO,MANTENEDOR,PREFIXO AN,NOME DA ES,DE,ATE,LATITUDE,LONGITUDE,MUNICIPIO,MUNICIPI_1,BACIA HIDR,Nome UGHRI,N_UGRHI,Nome SUBUG,N_SUBUGRHI,REDE,PROPRIETAR,TIPO DE PO,AREA (Km2),BTL,cia_amb,COBACIA,OBS,TEMPO DE T,STATUS PCD,ULTIMA TRA,CONVENCION,LOGGER,TELEMETRIC,NIVEL,VAZAO,FICHA DE INSPECAO,ULTIMA DATA FI,FICHA DESCRITIVA,ULTIMA_ATUALIZACAO_FD,AQUIFERO,ALTIMETRIA
"1D-008",,,CRUZEIRO,"1971","2000",-22.58333333,-45.14,CRUZEIRO,Piquete,R. PARAÍBA DO SUL,Paraíba do Sul,"2",Baixo Vale Paulista,2_4,,SPÁguas,FLU,12075,3° BPAmb,"3400","7789544",REGISTRADOR MECÂNICO,,,,,,,,,,,,,,
"1E-001",,,FAZENDA DO CUME,"1958","1972",-23.06666667,-45.08,CUNHA,Cunha,R. JACUÍ,Paraíba do Sul,"2",Alto Paraíba,2_1,,SPÁguas,FLU,93,3° BPAmb,"3400","7789961",,,,,,,,,,,,,,,
"2D-005",,,PINDAMONHANGABA,"1955","1998",-22.91666667,-45.52,PINDAMONHANGABA,Pindamonhangaba,RIB. DO PINHÃO,Paraíba do Sul,"2",,2_3,,SPÁguas,FLU,81,3° BPAmb,"3400","77895593",,,,,,,,,,,,,,,
"2D-006",FCTH,"58206000",BAIRRO RIO COMPRIDO,"1972","1981",-22.79027778,-45.21222222,GUARATINGUETÁ,Guaratingueta,R. PARAÍBA DO SUL,Paraíba do Sul,"2",Baixo Vale Paulista,2_4,,SPÁguas,FLU,10696,3° BPAmb,"3400","7789556",LOGGER (FCTH) / TELEMETRIA CHIP CELULAR / SAISP - FOI REGISTRADOR MECÂNICO - SEM OBSERVADOR - ESTAÇÃO MISTA D2-088,,ATIVO,,O,,,,,,,,,,
"2D-007",,,FAZENDA MODELO,"1954","1978",-22.95,-45.6,TREMEMBÉ,Tremembe,R. UNA,Paraíba do Sul,"2",,2_3,,SPÁguas,FLU,461,3° BPAmb,"3400","77895751",,,,,,,,,,,,,,,
"2D-008",,,FAZ. SANTANA,"2001","2006",-22.94694444,-46.10222222,SÃO JOSÉ DOS CAMPOS,Joanopolis,R. DO PEIXE,Piracicaba/Capivari/Jundiai,"5",Rio Atibaia,5_1,,SPÁguas,FLU,160,5° BPAmb,"5100","866648",LOGGER,,,,,,,,,,,,,,
"2D-013",FCTH,"58218200",CACHOEIRA PAULISTA,"1955","2022",-22.66166667,-45.0125,CACHOEIRA PAULISTA,Cachoeira Paulista,R. PARAÍBA DO SUL,Paraíba do Sul,"2",Baixo Vale Paulista,2_4,,SPÁguas,FLU,11411,3° BPAmb,"3400","77895531",LOGGER (FCTH) / TELEMETRIA CHIP CELULAR / SAISP - FOI REGISTRADOR MECÂNICO,,ATIVO,,O,L,T,,,,,,,,
"2D-025",FCTH,"58192000",VÁRZEA DO PARAÍBA,"1959","1999",-22.87777778,-45.42722222,PINDAMONHANGABA,Pindamonhangaba,R. PARAÍBA DO SUL,Paraíba do Sul,"2",,2_3,,SPÁguas,FLU,9733,3° BPAmb,"3400","77895591",LOGGER (FCTH) / TELEMETRIA CHIP CELULAR / SAISP - ESTAÇÃO MISTA D2-087 (INTERESSE AGEVAP),,ATIVO,,O,,,,,,,,,,
"2D-027",,,CORUPUTUBA -RÉGUA 14,"0","0",-22.83333333,-45.6,PINDAMONHANGABA,Pindamonhangaba,R. PARAÍBA DO SUL,Paraíba do Sul,"2",,2_3,,SPÁguas,FLU,,3° BPAmb,"3400","7789572",DE 1955 A 1970 SÓ NÍVEIS,,,,,,,,,,,,,,
"2D-028",FCTH,"58214000",LORENA / PIQUETE,"1964","1992",-22.69972222,-45.1425,LORENA,Lorena,R. PARAÍBA DO SUL,Paraíba do Sul,"2",Baixo Vale Paulista,2_4,,SPÁguas,FLU,11090,3° BPAmb,"3400","77895535",LOGGER (FCTH) / TELEMETRIA CHIP CELULAR / SAISP - DE 1981 A 1989 S/ VAZÕES - SEM OBSERVADOR - ESTAÇÃO MISTA D2-086 (INTERESSE AGEVAP),,ATIVO,,O,L,T,,,,,,,,
"2D-037",,,COLONIA PIAGUI,"1971","2002",-22.73694444,-45.24388889,GUARATINGUETÁ,Guaratingueta,R. PIAGUI,Paraíba do Sul,"2",Baixo Vale Paulista,2_4,,SPÁguas,FLU,173,3° BPAmb,"3400","7789556",DE 01/2003 A 10/2015 S/ LEITURAS DE ESCALAS,,,,,,,,,,,,,,
"2D-042",,,FAZENDA NATAL,"1971","1976",-22.78333333,-45.42,GUARATINGUETÁ,Pindamonhangaba,RIB. DOS BUENOS,Paraíba do Sul,"2",,2_3,,SPÁguas,FLU,38,3° BPAmb,"3400","77895572",,,,,,,,,,,,,,,
"2D-044",,,FAZENDA SAPUCAIA,"1957","1975",-22.81666667,-45.42,PINDAMONHANGABA,Pindamonhangaba,RIB. GRANDE,Paraíba do Sul,"2",,2_3,,SPÁguas,FLU,116,3° BPAmb,"3400","7789558",,,,,,,,,,,,,,,
"2D-053",,,POTIM,"1969","2001",-22.84277778,-45.29638889,POTIM,Potim,R. PARAÍBA DO SUL,Paraíba do Sul,"2",,2_3,,SPÁguas,FLU,10218,3° BPAmb,"3400","77895573",FOI TELEMETRICO - SEM OBSERVADOR - CONTINUAM AS MEDIÇÕES DE VAZÃO,,,,,,,,,,,,,,
"2D-054",,,FAZENDA KANEGAI,"1969","1998",-22.9,-45.66,TREMEMBÉ,Tremembe,R. PIRACUAMA,Paraíba do Sul,"2",,2_3,,SPÁguas,FLU,161,3° BPAmb,"3400","7789574",REGISTRADOR MECÂNICO,,,,,,,,,,,,,,
"2D-056",,,FAZENDA SANTA CATARINA,"1969","1999",-22.68333333,-45.16,LORENA,Lorena,RIB. DOS MACACOS,Paraíba do Sul,"2",Baixo Vale Paulista,2_4,,SPÁguas,FLU,37,3° BPAmb,"3400","77895535",,,,,,,,,,,,,,,
"2D-057",,,PASSA VINTE,"1969","1981",-22.58333333,-45,CRUZEIRO,Cruzeiro,RIB. PASSA VINTE,Paraíba do Sul,"2",Baixo Vale Paulista,2_4,,SPÁguas,FLU,61,3° BPAmb,"3400","77895393",,,,,,,,,,,,,,,
"2D-058",,,EMBAU,"1970","1996",-22.58333333,-45.04,CACHOEIRA PAULISTA,Cruzeiro,RIB. EMBAÚ,Paraíba do Sul,"2",Baixo Vale Paulista,2_4,,SPÁguas,FLU,177,3° BPAmb,"3400","7789542",REGISTRADOR MECÂNICO,,,,,,,,,,,,,,
"2D-059",,,PIRAPITINGUI,"1973","1989",-22.93333333,-45.38,ROSEIRA,Pindamonhangaba,RIB. PIRAPITINGUI,Paraíba do Sul,"2",,2_3,,SPÁguas,FLU,67,3° BPAmb,"3400","77895591",REGISTRADOR MECÂNICO,,,,,,,,,,,,,,
"2D-060",,,ÁGUA PRETA,"1976","1979",-22.9,-45.5,PINDAMONHANGABA,Pindamonhangaba,RIB. ÁGUA PRETA,Paraíba do Sul,"2",,2_3,,SPÁguas,FLU,19,3° BPAmb,"3400","77895593",,,,,,,,,,,,,,,
"2D-061",,,PITÉU,"1973","1993",-22.66666667,-45.02,CACHOEIRA PAULISTA,Cachoeira Paulista,RIB. PALMITAL,Paraíba do Sul,"2",Baixo Vale Paulista,2_4,,SPÁguas,FLU,38,3° BPAmb,"3400","77895531",REGISTRADOR MECÂNICO,,,,,,,,,,,,,,
"2D-062",FCTH,"61250100",PARQUE ESTADUAL,"1980","2020",-22.69333333,-45.60527778,CAMPOS DO JORDÃO,Campos do Jordao,R. SAPUCAÍ-GUAÇU,Mantiqueira,"1",Sapucaí-Guaçu,1_1,,SPÁguas,FLU,120,3° BPAmb,"3400","8688996",LOGGER (FCTH) - (ESTAÇÃO MISTA D2-096),,ATIVO,,,L,,Q,,,,,,,
"2D-063",,,PONTE DE PINDAMONHANGABA,"1983","1999",-22.9,-45.56,PINDAMONHANGABA,Tremembe,R. PARAÍBA DO SUL,Paraíba do Sul,"2",,2_3,,SPÁguas,FLU,9506,3° BPAmb,"3400","7789572",SEM OBSERVADOR - CONTINUAM AS MEDIÇÕES DE VAZÃO,,,,,,,,,,,,,,
"2D-064",,,BAIRRO DA LAGOA,"0","0",-22.70722222,-45.65277778,CAMPOS DO JORDÃO,Sao Bento do Sapucai,R. SAPUCAÍ-GUAÇU,Mantiqueira,"1",Lageado,1_2,,SPÁguas,FLU,54,3° BPAmb,"3400","8688876",LOGGER (FCTH) - CURVA DE 2007 A 2010 - SEM OBSERVADOR - MEDQ  INSTÁVEIS  (ESTAÇÃO MISTA D2-103),,,,,,,,,,,,,,
"2D-065",FCTH,"61321000",DIVISA SP-MG,"2006","2023",-22.670278,-45.742222,SÃO BENTO DO SAPUCAÍ,,R. SAPUCAÍ-MIRIM,,,,,,SPÁguas,FLU,522,,,,LOGGER (FCTH) - (ESTAÇÃO MISTA D2-102) - SEM VAZÃO DE 2008 A 2015,,ATIVO,,,L,,Q,,,,,,,
"2D-066",FCTH,,ESTRADA DE CUNHA,"0","0",-22.995,-45.05055556,CUNHA,Cunha,R. PARAITINGA,Paraíba do Sul,"2",Alto Paraíba,2_1,,SPÁguas,FLU,,3° BPAmb,"3400","77899911",LOGGER (FCTH) / TELEMETRIA SATÉLITE / SAISP - SEM OBSERVADOR,,ATIVO,,O,,,,,,,,,,
"2D-067",FCTH,,BARRAGEM DOS MOTAS,"0","0",-22.88777778,-45.26222222,APARECIDA,Aparecida,RIB. DOS MOTAS,Paraíba do Sul,"2",,2_3,,SPÁguas,FLU,,3° BPAmb,"3400","77895573",LOGGER (FCTH) / TELEMETRIA CHIP CELULAR / SAISP - SEM OBSERVADOR - ESTAÇÃO MISTA D2-089,,ATIVO,,O,L,T,,,,,,,,
"2E-002",,,FAZENDA VELHA,"1971","1979",-23.44527778,-45.10972222,UBATUBA,Ubatuba,RIB. LAGOA,Litoral Norte,"3",Ubatuba,3_2,,SPÁguas,FLU,6,3° BPAmb,"3300","7793939",,,,,,,,,,,,,,,
"2E-010",FCTH,,JARDIM TELESPARK,"2008","2010",-23.16194444,-46.08305556,SÃO JOSÉ DOS CAMPOS,Sao Jose dos Campos,R. PARAÍBA DO SUL,Paraíba do Sul,"2",Usina Santa Branca/ Rio Porangaba,2_2,,SPÁguas,FLU,7728,3° BPAmb,"3400","778965",LOGGER (FCTH) / TELEMETRIA CHIP CELULAR / SAISP - SEM OBSERVADOR - ESTAÇÃO MISTA E2-111 (INTERESSE AGEVAP),,ATIVO,,,,,,,,,,,,
"2E-012",,,REMÉDIOS,"1957","1967",-23.05,-45.6,TAUBATÉ,Taubate,R. UNA,Paraíba do Sul,"2",,2_3,,SPÁguas,FLU,352,3° BPAmb,"3400","77895751",,,,,,,,,,,,,,,
"2E-016",,,CERAMICA QUIRINO,"1957","1998",-23.06666667,-45.8,CAÇAPAVA,Cacapava,RIB. CAÇAPAVA VELHA,Paraíba do Sul,"2",,2_3,,SPÁguas,FLU,30,3° BPAmb,"3400","77895753",,,,,,,,,,,,,,,
"2E-018",,,FAZENDA IGAÇABA,"1959","1989",-23.15,-46.06,SÃO JOSÉ DOS CAMPOS,Sao Jose dos Campos,R. PARAÍBA DO SUL,Paraíba do Sul,"2",Usina Santa Branca/ Rio Porangaba,2_2,,SPÁguas,FLU,7756,3° BPAmb,"3400","778965",DE 1982 A 1986 S/ VAZÕES,,,,,,,,,,,,,,
"2E-020",,,FAXINAL,"1959","1975",-23.1,-45.24,LAGOINHA,Lagoinha,RIB. DO PINHAL,Paraíba do Sul,"2",Alto Paraíba,2_1,,SPÁguas,FLU,47,3° BPAmb,"3400","7789954",,,,,,,,,,,,,,,
"2E-021",,,SANTA LUZIA,"1970","1975",-23.11666667,-45.9,CAÇAPAVA,Sao Jose dos Campos,RIB. DA DIVISA,Paraíba do Sul,"2",Usina Santa Branca/ Rio Porangaba,2_2,,SPÁguas,FLU,62,3° BPAmb,"3400","7789581",,,,,,,,,,,,,,,
"2E-023",FCTH,,PARARANGABA,"1960","2011",-23.17611111,-45.96416667,SÃO JOSÉ DOS CAMPOS,Sao Jose dos Campos,R. PARARANGABA,Paraíba do Sul,"2",Usina Santa Branca/ Rio Porangaba,2_2,,SPÁguas,FLU,49,3° BPAmb,"3400","778961",DE 1988 A 2007 S/ VAZÕES - MEDIÇÕES DE VAZÃO REINICIADAS,,ATIVO,,,,,,,,,,,,
"2E-031",,,SALESÓPOLIS,"1964","1978",-23.51666667,-46.02,SALESÓPOLIS,Guararema,R. PARAITINGA,Paraíba do Sul,"2",Usina Santa Branca/ Rio Porangaba,2_2,,SPÁguas,FLU,123,1° BPAmb,"1300","7789718",,,,,,,,,,,,,,,
"2E-033",,,SITIO SAHEKI,"1965","1976",-23.53333333,-46.02,SALESÓPOLIS,Biritiba Mirim,R. PARAITINGA,Alto Tietê,"6",,6_1,,SPÁguas,FLU,217,1° BPAmb,"1300","866998",,,,,,,,,,,,,,,
"2E-034",,,FAZ. PINGO D'ÁGUA,"2004","2010",-23.12416667,-46.08611111,SÃO JOSÉ DOS CAMPOS,Sao Jose dos Campos,R. BUQUIRA,Paraíba do Sul,"2",Usina Santa Branca/ Rio Porangaba,2_2,,SPÁguas,FLU,401,3° BPAmb,"3400","7789671",LOGGER,,,,,,,,,,,,,,
"2E-035",,,TURVO,"2005","2011",-23.06555556,-46.16888889,SÃO JOSÉ DOS CAMPOS,Piracaia,R. TURVO,Piracicaba/Capivari/Jundiai,"5",Rio Atibaia,5_1,,SPÁguas,FLU,39,5° BPAmb,"5100","8666465",LOGGER,,,,,,,,,,,,,,
"2E-036",FCTH,,RIBEIRÃO DO MOINHO,"0","0",-23.04194444,-45.66555556,TAUBATÉ,Cacapava,RIB. DO MOINHO,Paraíba do Sul,"2",,2_3,,SPÁguas,FLU,,3° BPAmb,"3400","77895753",LOGGER (FCTH) / TELEMETRIA CHIP CELULAR / SAISP - SEM OBSERVADOR - ESTAÇÃO MISTA E2-144,,ATIVO,,,,,,,,,,,,
"2E-038",FCTH,,ESTRADA DA RIBEIRA,"0","0",-23.17916667,-45.33472222,SÃO LUÍS DO PARAITINGA,Sao Luiz do Paraitinga,R. PARAITINGA,Paraíba do Sul,"2",Alto Paraíba,2_1,,SPÁguas,FLU,,3° BPAmb,"3400","778992",SEM OBSERVADOR - ESTAÇÃO MISTA E2-145,,ATIVO,,,,,,,,,,,,
"2E-039",FCTH,,RIO PARAITINGA - JUSANTE DO JACUÍ,"0","0",-23.08888889,-45.16166667,LAGOINHA,Lagoinha,R. PARAITINGA,Paraíba do Sul,"2",Alto Paraíba,2_1,,SPÁguas,FLU,,3° BPAmb,"3400","7789955",LOGGER (FCTH) / TELEMETRIA CHIP CELULAR / SAISP - SEM OBSERVADOR - ESTAÇÃO MISTA E2-146,,ATIVO,,,,,,,,,,,,
"2E-040",FCTH,,RIO JACUÍ - FOZ DE AFLUENTE,"0","0",-23.08833333,-45.11388889,CUNHA,Cunha,R. JACUÍ,Paraíba do Sul,"2",Alto Paraíba,2_1,,SPÁguas,FLU,,3° BPAmb,"3400","7789961",LOGGER (FCTH) / TELEMETRIA SATÉLITE / SAISP - SEM OBSERVADOR -  ESTAÇÃO MISTA E2-147,,ATIVO,,,,,,,,,,,,
"2E-041",,,MATO DENTRO,"1972","1975",-23.43472222,-45.10194444,UBATUBA,Ubatuba,R. GRANDE DE UBATUBA,Litoral Norte,"3",Ubatuba,3_2,,SPÁguas,FLU,64,3° BPAmb,"3300","7793938",,,,,,,,,,,,,,,
"2E-043",,,QUIRIRIM,"1972","1976",-23.01666667,-45.74,TAUBATÉ,Cacapava,RIB. PIRACANGUÁ,Paraíba do Sul,"2",,2_3,,SPÁguas,FLU,49,3° BPAmb,"3400","77895753",,,,,,,,,,,,,,,
"2E-044",,,FAZENDA SANTA CLARA,"1972","1977",-23.13333333,-45.56,TAUBATÉ,Taubate,RIB. DAS ALMAS,Paraíba do Sul,"2",,2_3,,SPÁguas,FLU,113,3° BPAmb,"3400","7789562",,,,,,,,,,,,,,,
"2E-045",,,ATERRO VELHO DA EFCB,"1972","1976",-23,-45.72,TAUBATÉ,Cacapava,RIB. JOSÉ RAIMUNDO,Paraíba do Sul,"2",,2_3,,SPÁguas,FLU,19,3° BPAmb,"3400","77895753",,,,,,,,,,,,,,,
"2E-046",FCTH,,SALESÓPOLIS,"1978","2005",-23.51666667,-46,SALESÓPOLIS,Guararema,R. PARAITINGA,Paraíba do Sul,"2",Usina Santa Branca/ Rio Porangaba,2_2,,SPÁguas,FLU,127,1° BPAmb,"1300","7789718",REGISTRADOR MECÂNICO,,ATIVO,,,,,,,,,,,,
"2E-048",,,FAZENDA RIO CLARO,"1980","1990",-23.68333333,-45.58,CARAGUATATUBA,Caraguatatuba,R. CLARO,Litoral Norte,"3",Ubatuba,3_3,,SPÁguas,FLU,72,3° BPAmb,"3300","7793945",,,,,,,,,,,,,,,
"2E-049",FCTH,,RIBEIRÃO DO CHAPÉU,"0","0",-23.24916667,-45.34194444,SÃO LUÍS DO PARAITINGA,Sao Luiz do Paraitinga,RIBEIRÃO DO CHAPÉU,Paraíba do Sul,"2",Alto Paraíba,2_1,,SPÁguas,FLU,,3° BPAmb,"3400","7789915",LOGGER (FCTH) / TELEMETRIA CHIP CELULAR / SAISP - SEM OBSERVADOR - ESTAÇÃO MISTA E2-148,,ATIVO,,,,,,,,,,,,
"2E-050",FCTH,,ESTRADA BARRO VERMELHO,"0","0",-23.13916667,-45.20027778,LAGOINHA,Lagoinha,R. PARAITINGA,Paraíba do Sul,"2",Alto Paraíba,2_1,,SPÁguas,FLU,,3° BPAmb,"3400","7789953",LOGGER (FCTH) / TELEMETRIA CHIP CELULAR / SAISP - SEM OBSERVADOR - ESTAÇÃO MISTA E2-149,,ATIVO,,,,,,,,,,,,
"2E-051",FCTH,,PASSARELA,"0","0",-23.22277778,-45.37222222,SÃO LUÍS DO PARAITINGA,Sao Luiz do Paraitinga,R. PARAITINGA,Paraíba do Sul,"2",Alto Paraíba,2_1,,SPÁguas,FLU,,3° BPAmb,"3400","778992",LOGGER (FCTH) / TELEMETRIA CHIP CELULAR / SAISP - SEM OBSERVADOR - ESTAÇÃO MISTA E2-150,,ATIVO,,,,,,,,,,,,
"2E-052",FCTH,,PONTE ALTA,"0","0",-23.32916667,-45.16972222,SÃO LUÍS DO PARAITINGA,Sao Luiz do Paraitinga,R. PARAIBUNA,Paraíba do Sul,"2",Alto Paraíba,2_1,,SPÁguas,FLU,,3° BPAmb,"3400","7789891",LOGGER (FCTH) / TELEMETRIA SATÉLITE / SAISP - SEM OBSERVADOR - ESTAÇÃO MISTA E2-027,,ATIVO,,,,,,,,,,,,
"2E-053",FCTH,,SANTA BRANCA,"0","0",-23.36777778,-46.07611111,SANTA BRANCA,Guararema,R. PARAÍBA DO SUL,Paraíba do Sul,"2",Usina Santa Branca/ Rio Porangaba,2_2,,SPÁguas,FLU,,1° BPAmb,"1300","7789713",LOGGER (FCTH) / TELEMETRIA CHIP CELULAR / SAISP -SEM OBSERVADOR - ESTAÇÃO MISTA E2-151,,ATIVO,,,,,,,,,,,,
"2E-054",FCTH,,JACAREÍ,"0","0",-23.30777778,-46.16888889,JACAREÍ,Santa Isabel,R. PARAÍBA DO SUL,Paraíba do Sul,"2",Usina Santa Branca/ Rio Porangaba,2_2,,SPÁguas,FLU,,1° BPAmb,"1300","7789641",LOGGER (FCTH) / TELEMETRIA CHIP CELULAR / SAISP - SEM OBSERVADOR - ESTAÇÃO MISTA E2-152,,ATIVO,,,,,,,,,,,,
"2E-055",FCTH,,PARQUE MOÇOTA,"0","0",-23.07833333,-45.85083333,CAÇAPAVA,Sao Jose dos Campos,R. PARAÍBA DO SUL,Paraíba do Sul,"2",Usina Santa Branca/ Rio Porangaba,2_2,,SPÁguas,FLU,8360,3° BPAmb,"3400","7789579",LOGGER (FCTH) / TELEMETRIA CHIP CELULAR / SAISP - SEM OBSERVADOR - ESTAÇÃO MISTA E2-153,,ATIVO,,,,,,,,,,,,
"2E-056",FCTH,,CACHOEIRA DO CHAPÉU,"0","0",-23.20611111,-45.22388889,SÃO LUÍS DO PARAITINGA,Sao Luiz do Paraitinga,RIBEIRÃO DO CHAPÉU,Paraíba do Sul,"2",Alto Paraíba,2_1,,SPÁguas,FLU,,3° BPAmb,"3400","7789953",LOGGER (FCTH) / TELEMETRIA CHIP CELULAR / SAISP - SEM OBSERVADOR - ESTAÇÃO MISTA E2-155,,ATIVO,,,,,,,,,,,,
2E-500Z,FCTH,,FAZENDA MARAJÓ,"2019","2024",-23.11055556,-45.85027778,CAÇAPAVA,Sao Jose dos Campos,RIB. MANUEL LITTO,Paraíba do Sul,"2",Usina Santa Branca/ Rio Porangaba,2_2,,SPÁguas,PIEZO,,3° BPAmb,"3400","7789579",LEITURAS DE OBSERVADOR NÃO DIÁRIAS- Checar boca do poço,,ATIVO,,C,,,,,,,,,Taubaté,560
3C-001,,,SÃO JOSÉ DO RIO PARDO,"1944","1968",-21.58333333,-47.06,SÃO JOSÉ DO RIO PARDO,Mococa,R. PARDO,Pardo,"4",Rio Tambaú,4_2,,SPÁguas,FLU,4093,5° BPAmb,"5200","86842732",,,,,,,,,,,,,,,
3C-004,,,JUSANTE UHE-SÃO JOAQUIM,"2006","2021",-21.87472222,-47.07083333,VARGEM GRANDE DO SUL*(PARDO),Casa Branca,R. JAGUARI-MIRIM,Mogi-Guaçu,"9",Jaguari Mirim,9_2,,SPÁguas,FLU,932,5° BPAmb,"5200","8684624",SEM OBSERVADOR,,,,,,,,,,,,,,
3C-012,FCTH,"61821000",ITOBI,"1980","2024",-21.715,-47.16944444,ITOBI,Casa Branca,R. VERDE,Pardo,"4",Rio Tambaú,4_2,,SPÁguas,FLU,346,5° BPAmb,"5200","86842722",LOGGER (SOLINST) - SEM OBSERVADOR - FOI REGISTRADOR MECÂNICO - DE 2002 A 2008 S/ VAZÕES,,ATIVO,,,L,,,,,,,,,
"3D-001",FCTH,"62628000",DALBÓ,"1943","2025",-22.67555556,-47.16111111,JAGUARIÚNA,Cosmopolis,R.CAMANDUCAIA,Piracicaba/Capivari/Jundiai,"5",,5_3,,SPÁguas,FLU,928,5° BPAmb,"5200","86667",LOGGER (FCTH) / TELEMETRIA CHIP CELULAR / SAISP - SEM OBSERVADOR - DE 1996 A 1999 S/ VAZÕES - (ESTAÇÃO MISTA D3-044),,ATIVO,,,L,T,,,,,,,,
"3D-002",FCTH,"62622000",MONTE ALEGRE DO SUL,"1944","2025",-22.69888889,-46.80305556,MONTE ALEGRE DO SUL,Amparo,R. CAMANDUCAIA,Piracicaba/Capivari/Jundiai,"5",Rio Camanducaia,5_2,,SPÁguas,FLU,387,5° BPAmb,"5100","866687",,,ATIVO,,,,,,,,,,,,
"3D-003",FCTH,"62680000",DESEMBARGADOR FURTADO,"1944","2025",-22.77583333,-47.19027778,CAMPINAS,Paulinia,R. ATIBAIA,Piracicaba/Capivari/Jundiai,"5",Rio Atibaia,5_1,,SPÁguas,FLU,2308,5° BPAmb,"5100","866641",LOGGER (FCTH) / TELEMETRIA CHIP CELULAR / SAISP - (ESTAÇÃO MISTA D3-055),,ATIVO,,,L,T,Q,,,,,,,
"3D-004",,,MOJI-GUAÇU,"1944","2023",-22.37027778,-47.10388889,MOJI-GUAÇU,Conchal,R. MOJI-GUAÇU,Mogi-Guaçu,"9",Alto Mogi,9_1,,SPÁguas,FLU,3834,5° BPAmb,"5200","8684762",LOGGER (FCTH) / TELEMETRIA CHIP CELULAR / SAISP - SEM OBSERVADOR -  DE 1988 A 2005 E DE 2013 A 2014  S/ VAZÕES - ESTAÇÃO MISTA D3-074 - DESATIVADO EM OUT/24,,,,,,,,,,,,,,
"3D-006",FCTH,"62676000",BAIRRO DA PONTE,"1929","2025",-22.98305556,-46.99305556,ITATIBA,Valinhos,R. ATIBAIA,Piracicaba/Capivari/Jundiai,"5",Rio Atibaia,5_1,,SPÁguas,FLU,1920,5° BPAmb,"5100","866644",LOGGER (FCTH) / TELEMETRIA CHIP CELULAR / SAISP - SEM OBSERVADOR - DE 1997 A 2000 S/ VAZÕES - (ESTAÇÃO MISTA D3-048),,ATIVO,,,L,T,,,,,,,,
"3D-007",FCTH,"62678150",CAPTAÇÃO DE VALINHOS,"1999","2021",-22.92888889,-47.12611111,VALINHOS,Campinas,R. ATIBAIA,Piracicaba/Capivari/Jundiai,"5",,5_8,,SPÁguas,FLU,2152,5° BPAmb,"5100","866928",LOGGER (FCTH) / TELEMETRIA CHIP CELULAR / SAISP - SEM OBSERVADOR - ESTAÇÃO MISTA D3-051,,ATIVO,,,L,T,Q,,,,,,,
"3D-008",FCTH,"62616000",JAGUARIUNA,"2002","2025",-22.70305556,-47,JAGUARIÚNA,Jaguariuna,R. JAGUARI,Piracicaba/Capivari/Jundiai,"5",,5_3,,SPÁguas,FLU,2187,5° BPAmb,"5100","8666911",LOGGER (FCTH) / TELEMETRIA CHIP CELULAR / SAISP - SEM OBSERVADOR (ESTAÇÃO MISTA D3-045),,ATIVO,,,L,T,,,,,,,,
"3D-009",FCTH,"62605000",BUENÓPOLIS,"1930","2025",-22.85055556,-46.9325,MORUNGABA,Campinas,R. JAGUARI,Piracicaba/Capivari/Jundiai,"5",Rio Atibaia,5_1,,SPÁguas,FLU,1950,5° BPAmb,"5100","8666431",LOGGER (FCTH) / TELEMETRIA CHIP CELULAR / SAISP- SEM OBSERVADOR - (ESTAÇÃO MISTA D3-040),,ATIVO,,,L,T,,,,,,,,
"3D-015",FCTH,"62597000",GUARIPOCABA,"1971","2025",-22.90666667,-46.57027778,BRAGANÇA PAULISTA,Bragança Paulista,R. JAGUARI,Piracicaba/Capivari/Jundiai,"5",,5_3,,SPÁguas,FLU,1353,5° BPAmb,"5100","8666931",LOGGER (FCTH) / TELEMETRIA CHIP CELULAR / SAISP - SEM OBSERVADOR - DE 1993 A 2000 S/ VAZÕES - (ESTAÇÃO MISTA D3-047),,ATIVO,,,L,T,,,,,,,,
"3D-016",FCTH,"62590000",PIRES,"1971","2025",-22.87166667,-46.43222222,EXTREMA**(MG),Vargem,R. JAGUARI,Piracicaba/Capivari/Jundiai,"5",,5_3,,SPÁguas,FLU,955,5° BPAmb,"5100","866695",LOGGER (FCTH) / TELEMETRIA CHIP CELULAR / SAISP - SEM OBSERVADOR - DE 1993 A 2014 SEM VAZÕES - (ESTAÇÃO MISTA D3-075),,ATIVO,,,L,T,,,,,,,,
"3D-017",,,FORMIGA,"1971","1996",-22.72777778,-46.525,TOLEDO  **(MG),Pinhalzinho,R. CAMANDUCAIA,Piracicaba/Capivari/Jundiai,"5",Rio Camanducaia,5_2,,SPÁguas,FLU,102,5° BPAmb,"5100","8666891",,,,,,,,,,,,,,,
"3D-018",,,SÍTIO PONTE PRETA,"1973","1979",-22.26666667,-46.88,ESPÍRITO SANTO DO PINHAL,Mogi Guaçu,R. MOJI-GUAÇU,Mogi-Guaçu,"9",Alto Mogi,9_1,,SPÁguas,FLU,1248,5° BPAmb,"5100","86847842",,,,,,,,,,,,,,,
"3D-019",,,N. S. DAS GRAÇAS,"1976","1986",-22.98333333,-47,ITATIBA,Valinhos,RIB. JACAREZINHO,Piracicaba/Capivari/Jundiai,"5",Rio Atibaia,5_1,,SPÁguas,FLU,95,5° BPAmb,"5100","866644",REGISTRADOR MECÂNICO - DE 1980 A 1983 S/ VAZÕES,,,,,,,,,,,,,,
"3D-020",FCTH,"61873900",BAIRRO RIO MANSO,"2006","2025",-22.31583333,-46.97055556,ITAPIRA,Mogi Guaçu,R. MOJI-GUAÇU,Mogi-Guaçu,"9",Alto Mogi,9_1,,SPÁguas,FLU,1743,5° BPAmb,"5100","8684791",,,ATIVO,,,,,,,,,,,,
"3D-021",,,MOJI-MIRIM (SP-340),"0","0",-22.39444444,-47.165,MOJI-MIRIM,Conchal,R. MOJI-MIRIM,Mogi-Guaçu,"9",Alto Mogi,9_1,,SPÁguas,FLU,129,5° BPAmb,"5200","8684765",SEM OBSERVADOR - HÁ CURVA,,,,,,,,,,,,,,
"3D-022",,,FAZENDA PARAÍSO,"2006","2008",-22.08527778,-46.8625,SANTO ANTONIO DO JARDIM,Espirito Santo do Pinhal,R. JAGUARI-MIRIM,Mogi-Guaçu,"9",Alto Mogi,9_1,,SPÁguas,FLU,466,5° BPAmb,"5200","8684745",SEM OBSERVADOR,,,,,,,,,,,,,,
"3D-023",IPT,,SÍTIO DO EMBIRAÇU,"2008","2013",-22.02444444,-47.12611111,AGUAÍ,Aguai,CÓRR. DA ISOLDINA,Mogi-Guaçu,"9",Alto Mogi,9_1,,SPÁguas,FLU,19,5° BPAmb,"5200","8684743",LOGGER (SOLINST) RECOLHIDO - SEM OBSERVADOR - CONTINUAM AS MEDIÇÕES DE VAZÃO,,PARALIZADO,,,,,,,,,,,,
"3D-024",,,FOZ DO SALTO DE CIMA,"0","0",-22.83833333,-46.26194444,EXTREMA**(MG),,CÓRR. DO SALTO DE CIMA,,,,,,SPÁguas,FLU,15.3,,,,LOGGER (CAMPBELL) - SEM OBSERVADOR - NÃO HÁ CURVA - (ESTAÇÃO MISTA D3-076),,,,,,,,,,,,,,
"3D-025",,,CABECEIRA DO RIBEIRÃO DAS POSSES,"0","0",-22.87916667,-46.29305556,EXTREMA**(MG),,RIBEIRÃO DAS POSSES,,,,,,SPÁguas,FLU,3.49,,,,,,,,,,,,,,,,,,
"3D-026",FCTH,,FOZ DO RIBEIRÃO DAS POSSES,"2008","2025",-22.832972,-46.231361,EXTREMA**(MG),,RIBEIRÃO DAS POSSES,,,,,,SPÁguas,FLU,12.2,,,,LOGGER (HOBECO) - SEM OBSERVADOR - NÃO HÁ CURVA -  (ESTAÇÃO MISTA D3-077),,ATIVO,,,L,,,,,,,,,
"3D-027",FCTH,,CABECEIRA DO RIBEIRÃO DA FORJA,"2019","2025",-22.875,-46.291944,EXTREMA**(MG),,RIBEIRÃO DA FORJA,,,,,,SPÁguas,FLU,4.77,,,,LOGGER (SOLINST) - SEM OBSERVADOR - NÃO HÁ CURVA-NASCENTE DO JAGUARI-POSTO EM MG,,ATIVO,,,L,,,,,,,,,
"3D-028",FCTH,,AMPARO,"0","0",-22.71138889,-46.93416667,AMPARO,Pedreira,R. CAMANDUCAIA,Piracicaba/Capivari/Jundiai,"5",Rio Camanducaia,5_2,,SPÁguas,FLU,,5° BPAmb,"5100","866683",LOGGER (FCTH) / TELEMETRIA  CHIP CELULAR / SAISP - (ESTAÇÃO MISTA D3-078),,ATIVO,,O,,,,,,,,,,
"3E-003",,,USINA RIO DOS CAMPOS,"1953","1973",-23.95,-46.78,SÃO PAULO *(AT),Itanhaem,R. CAPIVARI,Baixada Santista,"7",Rio Branco / Rio Preto,7_3,,SPÁguas,FLU,142,3° BPAmb,"3100","7793966",REGISTRADOR MECÂNICO,,,,,,,,,,,,,,
"3E-004",,,SÃO MIGUEL PAULISTA,"1953","1969",-23.48333333,-46.52,SÃO PAULO,Sao Paulo,R. TIETÊ,Alto Tietê,"6",Rio Pinheiros x rio Tietê até barragem da Penha,6_5,,SPÁguas,FLU,1610,1° BPAmb,"1300","8669935",,,,,,,,,,,,,,,
"3E-007",,,BIRITIBA-MIRIM,"1959","1977",-23.55,-46.1,BIRITIBA-MIRIM,Biritiba Mirim,R. BIRITIBA-MIRIM,Alto Tietê,"6",,6_1,,SPÁguas,FLU,91,1° BPAmb,"1300","8669971",,,,,,,,,,,,,,,
"3E-008",,,ESTALEIRO DAEE,"1953","1999",-23.5,-46.24,MOGI DAS CRUZES,Mogi das Cruzes,R. TIETÊ,Paraíba do Sul,"2",Usina Santa Branca/ Rio Porangaba,2_2,,SPÁguas,FLU,841,1° BPAmb,"1300","778962",,,,,,,,,,,,,,,
"3E-014",,,TAIAÇUPEBA-AÇU,"1960","1976",-23.6,-46.3,SUZANO,Suzano,R. TAIAÇUPEBA-AÇU,Alto Tietê,"6",,6_1,,SPÁguas,FLU,97,1° BPAmb,"1300","8669942",,,,,,,,,,,,,,,
"3E-015",,,PALMEIRAS,"1960","1976",-23.6,-46.32,MOGI DAS CRUZES,Suzano,RIB. BALAINHO,Alto Tietê,"6",,6_1,,SPÁguas,FLU,35,1° BPAmb,"1300","8669939",,,,,,,,,,,,,,,
"3E-016",,,SANTO ANGELO,"1960","1982",-23.56666667,-46.26,MOGI DAS CRUZES,Mogi das Cruzes,R. JUNDIAÍ,Alto Tietê,"6",,6_1,,SPÁguas,FLU,142,1° BPAmb,"1300","8669941",,,,,,,,,,,,,,,
"3E-018",,,REMEDINHO,"1961","1973",-23.23333333,-46.02,JACAREÍ,Jacarei,R. PARATEÍ,Paraíba do Sul,"2",Usina Santa Branca/ Rio Porangaba,2_2,,SPÁguas,FLU,393,3° BPAmb,"3400","778962",REGISTRADOR MECÂNICO,,,,,,,,,,,,,,
"3E-021",,,TAIAÇUPEBA-MIRIM,"1962","1976",-23.63333333,-46.38,SUZANO,Ribeirao Pires,R. TAIAÇUPEBA-MIRIM,Alto Tietê,"6",,6_1,,SPÁguas,FLU,47,1° BPAmb,"1200","8669938",,,,,,,,,,,,,,,
"3E-035",,,QUINTA COLÔNIA,"1963","1969",-23.31666667,-46.84,FRANCO DA ROCHA,Cajamar,R. JUQUERI,Alto Tietê,"6",Juqueri,6_7,,SPÁguas,FLU,393,1° BPAmb,"1100","866962",,,,,,,,,,,,,,,
"3E-036",FCTH,,AÇOS ANHANGUERA,"1965","2014",-23.52583333,-46.19027778,MOGI DAS CRUZES,Mogi das Cruzes,R. TIETÊ,Alto Tietê,"6",,6_1,,SPÁguas,FLU,782,1° BPAmb,"1300","8669971",LOGGER (CAMPBELL) /TELEMETRIA CHIP CELULAR (nada gravado no Banco de Dados) - (ESTAÇÃO MISTA E3-273),,ATIVO,,,,,,,,,,,,
"3E-048",FCTH,,PONTE NOVA,"1964","2025",-23.57361111,-46.16444444,BIRITIBA-MIRIM,Mogi das Cruzes,R. TIETÊ,Alto Tietê,"6",,6_1,,SPÁguas,FLU,358,1° BPAmb,"1300","8669971",DE 1971 A 1980 S/ VAZÕES - PARALISADO E DE 2000 A 2016 SEM MEDQ,,ATIVO,,,,,,,,,,,,
"3E-050",,,ITAPANHAU,"1964","1976",-23.68333333,-46.02,BIRITIBA-MIRIM *(AT),Biritiba Mirim,R. ITAPANHAU,Baixada Santista,"7",,7_1,,SPÁguas,FLU,81,1° BPAmb,"1300","77939523",REGISTRADOR MECÂNICO,,,,,,,,,,,,,,
"3E-052",,,RIO ABAIXO,"1964","1992",-23.51666667,-46.34,SUZANO,Poa,R. TIETÊ,Alto Tietê,"6",,6_1,,SPÁguas,FLU,1337,1° BPAmb,"1300","8669937",REGISTRADOR MECÂNICO,,,,,,,,,,,,,,
"3E-057",,,VILA GALVÃO,"1969","1983",-23.45,-46.68,SÃO PAULO,Sao Paulo,R. CABUÇU DE CIMA,Alto Tietê,"6",Rio Pinheiros x rio Tietê até barragem da Penha,6_5,,SPÁguas,FLU,110,1° BPAmb,"1100","866991",DE 1972 A 1975 S/ VAZÕES,,,,,,,,,,,,,,
"3E-060",,,TABOÃO,"1965","1973",-23.35722222,-46.22083333,MOGI DAS CRUZES *(AT),Santa Isabel,R. PARATEÍ,Paraíba do Sul,"2",Usina Santa Branca/ Rio Porangaba,2_2,,SPÁguas,FLU,206,1° BPAmb,"1300","778962",REGISTRADOR MECÂNICO,,,,,,,,,,,,,,
"3E-063",FCTH,,ATIBAIA,"2002","2025",-23.10611111,-46.66638889,ATIBAIA,Atibaia,R. ATIBAIA,Piracicaba/Capivari/Jundiai,"5",Rio Atibaia,5_1,,SPÁguas,FLU,1143,5° BPAmb,"5100","8666454",LOGGER (FCTH) / TELEMETRIA CHIP CELULAR / SAISP - SEM OBSERVADOR - (ESTAÇÃO MISTA E3-111),,ATIVO,,,,,,,,,,,,
"3E-064",FCTH,,BUSSOCABA,"0","0",-23.53277778,-46.92638889,OSASCO,Itapevi,RIB. BUSSOCABA,Alto Tietê,"6",Rasgão até rio Pinheiros x rio Tietê,6_8,,SPÁguas,FLU,8.6,1° BPAmb,"1100","8669722",LOGGER (CAMPBELL) / TELEMETRIA CHIP CELULAR / FOI REGISTRADOR MECÂNICO  - NÃO HÁ CURVA - (ESTAÇÃO MISTA E3-266),,ATIVO,,,,,,,,,,,,
"3E-068",,,BAIXO COTIA-SABESP,"1965","1986",-23.53333333,-47.02,CARAPICUIBA,Sao Roque,R. COTIA,Alto Tietê,"6",Rasgão até rio Pinheiros x rio Tietê,6_8,,SPÁguas,FLU,242,5° BPAmb,"5300","8669722",REGISTRADOR MECÂNICO - DE 1977 A 1979 S/ VAZÕES,,,,,,,,,,,,,,
"3E-072",,,IAG-MONTANTE DO LAGO,"0","0",-23.65,-46.74,SÃO PAULO,Sao Paulo,CÓRR. DO IAG,Alto Tietê,"6",Rio Pinheiros x rio Tietê até barragem da Penha,6_5,,SPÁguas,FLU,0.59,1° BPAmb,"1200","866983",REGISTRADOR MECÂNICO - NÃO CADASTRADO,,,,,,,,,,,,,,
"3E-074",,,CAPUAVA,"1968","1972",-23.63333333,-46.56,MAUÁ,Sao Caetano do Sul,R. TAMANDUATEÍ,Alto Tietê,"6",Tamanduateí,6_2,,SPÁguas,FLU,43,1° BPAmb,"1200","8669923",REGISTRADOR MECÂNICO,,,,,,,,,,,,,,
"3E-075",,,VILA PROSPERIDADE,"1969","1974",-23.6,-46.66,SÃO CAETANO DO SUL,Sao Paulo,R. TAMANDUATEÍ,Alto Tietê,"6",Rio Pinheiros x rio Tietê até barragem da Penha,6_5,,SPÁguas,FLU,130,1° BPAmb,"1200","866983",,,,,,,,,,,,,,,
"3E-076",,,MOOCA,"1969","1980",-23.55,-46.74,SÃO PAULO,Sao Paulo,R. TAMANDUATEÍ,Alto Tietê,"6",Rio Pinheiros x rio Tietê até barragem da Penha,6_5,,SPÁguas,FLU,311,1° BPAmb,"1200","866981",REGISTRADOR MECÂNICO,,,,,,,,,,,,,,
"3E-077",,,PONTE PRETA,"1966","1969",-23.88333333,-46.54,CUBATÃO,Sao Bernardo do Campo,R. CUBATÃO,Alto Tietê,"6",,6_3,,SPÁguas,FLU,131,1° BPAmb,"1200","8669844",REGISTRADOR MECÂNICO,,,,,,,,,,,,,,
"3E-086",,,PENHA,"1970","1976",-23.5,-46.66,SÃO PAULO,Sao Paulo,R. TIETÊ,Alto Tietê,"6",Rio Pinheiros x rio Tietê até barragem da Penha,6_5,,SPÁguas,FLU,1880,1° BPAmb,"1100","866991",REGISTRADOR MECÂNICO,,,,,,,,,,,,,,
"3E-088",,,CRAVORANA,"1971","1992",-23.03333333,-46.4,PIRACAIA,Piracaia,R. DA CACHOEIRA,Piracicaba/Capivari/Jundiai,"5",Rio Atibaia,5_1,,SPÁguas,FLU,404,5° BPAmb,"5100","866647",REGISTRADOR MECÂNICO,,,,,,,,,,,,,,
"3E-089",FCTH,,MASCATE,"1971","2025",-23.16777778,-46.49555556,NAZARÉ PAULISTA,Bon Jesus dos Perdoes,R. ATIBAINHA,Piracicaba/Capivari/Jundiai,"5",Rio Atibaia,5_1,,SPÁguas,FLU,340,5° BPAmb,"5100","8666461",LOGGER (FCTH) / TELEMETRIA CHIP CELULAR / SAISP - SEM OBSERVADOR - FOI REGISTRADOR MECÂNICO - DE 1993 A 2000 S/ VAZÕES -  (ESTAÇÃO MISTA E3-121),,ATIVO,,,,,,,,,,,,
"3E-090",,,SAGRADO CORAÇÃO,"1971","1982",-23.51666667,-47.08,JANDIRA,Sao Roque,R. S. JOÃO DO BARUERI,Tietê/ Sorocaba,"10",Médio Tietê Superior,10_4,,SPÁguas,FLU,133,5° BPAmb,"5300","866956",REGISTRADOR MECÂNICO,,,,,,,,,,,,,,
"3E-093",FCTH,,CESARI,"1972","1975",-23.82166667,-46.43111111,CUBATÃO,Sao Bernardo do Campo,R. MOJI,Baixada Santista,"7",Rio Cubatão,7_2,,SPÁguas,FLU,19,1° BPAmb,"1200","77939562",LOGGER (CAMPBEL)/TELEMETRIA CELULAR - FOI REGISTRADOR MECÂNICO - NÃO HÁ CURVA ATUALMENTE - SEM OBSERVADOR - ESTAÇÃO MISTA E3-276,,ATIVO,,,,,,,,,,,,
"3E-095",FCTH,,QUILOMBO,"1971","1987",-23.81666667,-46.38,SANTOS,Cubatao,R. QUILOMBO,Baixada Santista,"7",Rio Cubatão,7_2,,SPÁguas,FLU,57,3° BPAmb,"3100","77939542",,,ATIVO,,,,,,,,,,,,
"3E-098",,,EMBU-GUAÇU,"1972","1981",-23.63333333,-47,EMBU,Vargem Grande Paulista,R. EMBU-MIRIM,Tietê/ Sorocaba,"10",Médio Tietê Superior,10_1,,SPÁguas,FLU,119,1° BPAmb,"1200","866897",,,,,,,,,,,,,,,
"3E-099",,,CUMBICA,"1972","1980",-23.48333333,-46.56,SÃO PAULO,Guarulhos,R. TIETÊ,Alto Tietê,"6",Rio Pinheiros x rio Tietê até barragem da Penha,6_5,,SPÁguas,FLU,1658,1° BPAmb,"1100","8669934",,,,,,,,,,,,,,,
"3E-100",,,VILA SÃO JOSÉ,"1972","1976",-23.63333333,-46.68,SÃO CAETANO DO SUL,Sao Paulo,RIB. DOS MENINOS,Alto Tietê,"6",Rio Pinheiros x rio Tietê até barragem da Penha,6_5,,SPÁguas,FLU,104,1° BPAmb,"1200","866983",,,,,,,,,,,,,,,
"3E-101",,,GUAIAUNA,"1973","1977",-23.53333333,-46.64,SÃO PAULO,Sao Paulo,R. ARICANDUVA,Alto Tietê,"6",Tamanduateí,6_2,,SPÁguas,FLU,81,1° BPAmb,"1200","8669921",,,,,,,,,,,,,,,
"3E-103",,,JARDIM SANTA MARIA,"1972","1978",-23.2,-46.9,CAMPO LIMPO PAULISTA,Jundiai,R. JUNDIAÍ,Piracicaba/Capivari/Jundiai,"5",Rio Jundiaí,5_7,,SPÁguas,FLU,108,5° BPAmb,"5100","866947",,,,,,,,,,,,,,,
"3E-104",,,ÁGUA VERMELHA,"1972","1979",-23.53333333,-46.4,SUZANO,Sao Paulo,RIB. GUAIÓ,Alto Tietê,"6",Rio Pinheiros x rio Tietê até barragem da Penha,6_5,,SPÁguas,FLU,71,1° BPAmb,"1300","8669937",,,,,,,,,,,,,,,
"3E-105",,,CAXINGUI,"1972","1976",-23.56666667,-46.84,SÃO PAULO,Carapicuiba,R. PIRAJUÇARA,Alto Tietê,"6",Rasgão até rio Pinheiros x rio Tietê,6_8,,SPÁguas,FLU,68,1° BPAmb,"1100","866973",,,,,,,,,,,,,,,
"3E-106",,,PERUS (CIA MELHORAMENTOS),"1973","1979",-23.4,-46.94,SÃO PAULO,Santana de Parnaiba,R. JUQUERI,Alto Tietê,"6",Rasgão até rio Pinheiros x rio Tietê,6_8,,SPÁguas,FLU,607,1° BPAmb,"1100","866971",,,,,,,,,,,,,,,
"3E-108",,,CAMPO LIMPO,"1979","2002",-23.20805556,-46.89166667,CAMPO LIMPO PAULISTA,Jundiai,R. JUNDIAÍ,Piracicaba/Capivari/Jundiai,"5",Rio Jundiaí,5_7,,SPÁguas,FLU,100,5° BPAmb,"5100","866948",,,,,,,,,,,,,,,
"3E-109",,,FRANCO DA ROCHA,"1980","1992",-23.33333333,-46.86,FRANCO DA ROCHA,Cajamar,R. JUQUERI,Alto Tietê,"6",Juqueri,6_7,,SPÁguas,FLU,465,1° BPAmb,"1100","866962",,,,,,,,,,,,,,,
"3E-110",,,POÁ,"1980","1993",-23.53333333,-46.4,POÁ,Sao Paulo,RIB. GUAIÓ,Alto Tietê,"6",Rio Pinheiros x rio Tietê até barragem da Penha,6_5,,SPÁguas,FLU,66,1° BPAmb,"1300","8669937",REGISTRADOR MECÂNICO,,,,,,,,,,,,,,
"3E-111",,,EMBU-GUAÇU,"1981","1993",-23.83333333,-46.96,EMBU-GUAÇU,Sao Lourenco da Serra,R. EMBU-GUAÇU,Ribeira de Iguape / Litoral Sul,"11",Alto Juquiá,11_2,,SPÁguas,FLU,114,1° BPAmb,"1200","77944983",REGISTRADOR MECÂNICO,,,,,,,,,,,,,,
"3E-113",,,CAPITÓLIO,"1982","1991",-23.5,-47.06,BARUERI,Sao Roque,R. S. JOÃO DO BARUERI,Tietê/ Sorocaba,"10",Médio Tietê Superior,10_4,,SPÁguas,FLU,136,5° BPAmb,"5300","866956",REGISTRADOR MECÂNICO,,,,,,,,,,,,,,
"3E-114",,,BELVEDERE,"1981","1999",-23.96666667,-47.06,JUQUITIBA,Juquitiba,R. JUQUIÁ,Ribeira de Iguape / Litoral Sul,"11",Alto Juquiá,11_2,,SPÁguas,FLU,35,1° BPAmb,"1200","77944993",,,,,,,,,,,,,,,
"3E-115",,,IAG-MATA,"0","0",-23.65,-46.74,SÃO PAULO,Sao Paulo,CÓRR. DO IAG,Alto Tietê,"6",Rio Pinheiros x rio Tietê até barragem da Penha,6_5,,SPÁguas,FLU,0.26,1° BPAmb,"1200","866983",REGISTRADOR MECÂNICO - NÃO CADASTRADO,,,,,,,,,,,,,,
"3E-116",FCTH,,CAPTAÇÃO DE PIRACAIA,"2001","2016",-23.04805556,-46.39083333,PIRACAIA,Piracaia,R. DA CACHOEIRA,Piracicaba/Capivari/Jundiai,"5",Rio Atibaia,5_1,,SPÁguas,FLU,406,5° BPAmb,"5100","866647",LOGGER (FCTH) / TELEMETRIA CHIP CELULAR / SAISP - SEM OBSERVADOR - (ESTAÇÃO MISTA E3-110),,ATIVO,,,,,,,,,,,,
"3E-118",,,BARRAGEM DA SABESP,"0","0",-23.91666667,-46.56,CUBATÃO,Sao Bernardo do Campo,R. CUBATÃO,Baixada Santista,"7",Rio Cubatão,7_2,,SPÁguas,FLU,132,1° BPAmb,"1200","77939565",LOGGER - DESTRUÍDO POR ENCHENTE - NÃO HÁ CURVA,,,,,,,,,,,,,,
"3E-119",,,BERTIOGA,"0","0",-23.84444444,-46.16916667,BERTIOGA,Bertioga,R. ITAPANHAU,Baixada Santista,"7",,7_1,,SPÁguas,FLU,385,3° BPAmb,"3100","77939521",LOGGER (SOLINST) - S/ OBSERVADOR - NÃO HÁ CURVA,,,,,,,,,,,,,,
"3E-120",,,VINHEDO URBANO,"0","0",-23.01305556,-47.17472222,VINHEDO,Campinas,CÓRR. DA CACHOEIRA,Piracicaba/Capivari/Jundiai,"5",,5_8,,SPÁguas,FLU,15,5° BPAmb,"5100","866926",LOGGER (SOLINST) - SEM OBSERVADOR - NÃO HÁ CURVA,,,,,,,,,,,,,,
"3E-121",FCTH,,ATIBAINHA MONTANTE,"2015","2025",-23.10222222,-46.32666667,PIRACAIA,Piracaia,R. ATIBAINHA,Piracicaba/Capivari/Jundiai,"5",Rio Atibaia,5_1,,SPÁguas,FLU,137,5° BPAmb,"5100","866647",LOGGER (FCTH) / TELEMETRIA CHIP CELULAR / SAISP - SEM OBSERVADOR - (ESTAÇÃO MISTA E3-268),,ATIVO,,,,,,,,,,,,
"3E-122",FCTH,,CACHOEIRA MONTANTE,"2015","2025",-23.00638889,-46.28638889,PIRACAIA,Piracaia,R. DA CACHOEIRA,Piracicaba/Capivari/Jundiai,"5",Rio Atibaia,5_1,,SPÁguas,FLU,294,5° BPAmb,"5100","866647",LOGGER (VAISALA) / TELEMETRIA SATELITE / SAISP- SEM OBSERVADOR - (ESTAÇÃO MISTA E3-269),,ATIVO,,,,,,,,,,,,
"3E-123",,,TUNEL 5 - MONTANTE,"2014","2021",-23.26555556,-46.57027778,NAZARÉ PAULISTA,Mairipora,R. JUQUERI,Piracicaba/Capivari/Jundiai,"5",Rio Jundiaí,5_7,,SPÁguas,FLU,54,1° BPAmb,"1100","866949",LOGGER (SOLINST),,,,,,,,,,,,,,
"3E-125",,,PAIVA CASTRO MONTANTE,"0","0",-23.31638889,-46.70416667,MAIRIPORÃ,Franco da Rocha,R. JUQUERI,Alto Tietê,"6",Juqueri,6_7,,SPÁguas,FLU,219,1° BPAmb,"1100","866964",LOGGER (VAISALA) / TELEMETRIA SATELITE - CURVA TRAÇADA SÓ PARA 2014 -  SEM OBSERVADOR - INTERESSE SÓ EM VAZÕES PONTUAIS - (ESTAÇÃO MISTA E3-272),,,,,,,,,,,,,,
"3E-126",FCTH,,PARQUE ECOLÓGICO PEREQUÊ,"0","0",-23.85194444,-46.50055556,CUBATÃO,Sao Bernardo do Campo,R. PEREQUÊ,Baixada Santista,"7",Rio Cubatão,7_2,,SPÁguas,FLU,,1° BPAmb,"1200","77939564",LOGGER (ATIVA)/TELEMETRIA SATÉLITE - SEM OBSERVADOR - NÃO HÁ CURVA,,ATIVO,,,,,,,,,,,,
"3E-127",FCTH,,PETROBRÁS - REFINARIA,"0","0",-23.87861111,-46.5225,CUBATÃO,Sao Bernardo do Campo,R. CUBATÃO,Baixada Santista,"7",Rio Cubatão,7_2,,SPÁguas,FLU,145,1° BPAmb,"1200","77939564",LOGGER (CAMPBEL)/TELEMETRIA CELULAR - SEM OBSERVADOR - NÃO HÁ CURVA,,ATIVO,,,,,,,,,,,,
"3E-128",FCTH,,CAPTAÇÃO DA RIVIERA DE S. LOURENÇO,"0","0",-23.77694444,-46.06333333,BERTIOGA,Bertioga,R. ITAPANHAU,Baixada Santista,"7",,7_1,,SPÁguas,FLU,,3° BPAmb,"3100","77939523",LOGGER (CAMPBEL)/TELEMETRIA  CELULAR - SEM OBSERVADOR,,ATIVO,,,,,,,,,,,,
"3E-129",FCTH,,PONTE PIQUERI,"0","0",-23.50861111,-46.84555556,SÃO PAULO,Barueri,R. TIETÊ,Alto Tietê,"6",Rasgão até rio Pinheiros x rio Tietê,6_8,,SPÁguas,FLU,,1° BPAmb,"1100","866973",LOGGER (FCTH) / TELEMETRIA CHIP CELULAR / SAISP,,ATIVO,,,,,,,,,,,,
"3E-130",FCTH,,PONTE DUTRA,"0","0",-23.52972222,-46.70777778,SÃO PAULO,Sao Paulo,R. TIETÊ,Alto Tietê,"6",Rio Pinheiros x rio Tietê até barragem da Penha,6_5,,SPÁguas,FLU,,1° BPAmb,"1200","866991",LOGGER (FCTH) / TELEMETRIA CHIP CELULAR / SAISP,,ATIVO,,,,,,,,,,,,
"3E-131",FCTH,,BARRAGEM MÓVEL - MONTANTE,"0","0",-23.525,-46.90111111,OSASCO,Jandira,R. TIETÊ,Alto Tietê,"6",Rasgão até rio Pinheiros x rio Tietê,6_8,,SPÁguas,FLU,,1° BPAmb,"1100","8669722",ESTAÇÃO MISTA E3-279,,ATIVO,,,,,,,,,,,,
"3E-132",FCTH,,BARRAGEM MÓVEL - JUSANTE,"0","0",-23.52611111,-46.90111111,SÃO PAULO,Jandira,R. TIETÊ,Alto Tietê,"6",Rasgão até rio Pinheiros x rio Tietê,6_8,,SPÁguas,FLU,,1° BPAmb,"1100","8669722",LOGGER (FCTH) / TELEMETRIA CHIP CELULAR / SAISP,,ATIVO,,,,,,,,,,,,
"3E-133",FCTH,,BARRAGEM DA PENHA - MONTANTE,"0","0",-23.50138889,-46.64861111,SÃO PAULO,Sao Paulo,R. TIETÊ,Alto Tietê,"6",Rio Pinheiros x rio Tietê até barragem da Penha,6_5,,SPÁguas,FLU,,1° BPAmb,"1100","866991",LOGGER (FCTH) / TELEMETRIA CHIP CELULAR / SAISP,,ATIVO,,,,,,,,,,,,
"3E-134",FCTH,,BARRAGEM DA PENHA - JUSANTE,"0","0",-23.50361111,-46.64916667,SÃO PAULO,Sao Paulo,R. TIETÊ,Alto Tietê,"6",Rio Pinheiros x rio Tietê até barragem da Penha,6_5,,SPÁguas,FLU,,1° BPAmb,"1100","866991",LOGGER (FCTH) / TELEMETRIA CHIP CELULAR / SAISP - ESTAÇÃO MISTA E3-281,,ATIVO,,,,,,,,,,,,
"3E-135",FCTH,,NÚCLEO JARDIM HELENA,"0","0",-23.47583333,-46.49583333,SÃO PAULO,Guarulhos,SNA2 TIETÊ R.,Alto Tietê,"6",Rio Pinheiros x rio Tietê até barragem da Penha,6_5,,SPÁguas,FLU,,1° BPAmb,"1100","8669935",LOGGER (FCTH) / TELEMETRIA CHIP CELULAR / SAISP - ESTAÇÃO MISTA E3-282,,ATIVO,,,,,,,,,,,,
"3E-136",FCTH,,NÚCLEO ITAIM BIACICA,"0","0",-23.48916667,-46.48277778,SÃO PAULO,Sao Paulo,RIB. LAJEADO,Alto Tietê,"6",Rio Pinheiros x rio Tietê até barragem da Penha,6_5,,SPÁguas,FLU,,1° BPAmb,"1300","8669937",LOGGER (FCTH) / TELEMETRIA CHIP CELULAR / SAISP - ESTAÇÃO MISTA E3-283,,ATIVO,,,,,,,,,,,,
"3E-137",FCTH,,RIBEIRÃO EUSÉBIO,"0","0",-23.32888889,-46.86944444,FRANCO DA ROCHA,Cajamar,RIB. DO EUSÉBIO,Alto Tietê,"6",Juqueri,6_7,,SPÁguas,FLU,,1° BPAmb,"1100","866962",LOGGER (FCTH) / TELEMETRIA CHIP CELULAR / SAISP - ESTAÇÃO MISTA E3-284,,ATIVO,,,,,,,,,,,,
"3E-138",FCTH,,PISCINÃO AV - 03,"0","0",-23.31111111,-46.88333333,FRANCO DA ROCHA,Cajamar,R. JUQUERI,Tietê/ Sorocaba,"10",Médio Tietê Superior,10_4,,SPÁguas,FLU,,1° BPAmb,"1100","866958",LOGGER (FCTH) / TELEMETRIA CHIP CELULAR / SAISP - ESTAÇÃO MISTA E3-285,,ATIVO,,,,,,,,,,,,
"3E-139",FCTH,,PISCINÃO RC 6 - IMIGRANTES - MONT.,"0","0",-23.68388889,-46.72805556,DIADEMA,Sao Paulo,CÓRR CURRAL GRANDE,Alto Tietê,"6",,6_4,,SPÁguas,FLU,,1° BPAmb,"1200","866985",,,ATIVO,,,,,,,,,,,,
"3E-140",FCTH,,PISCINÃO RC 6 - IMIGRANTES,"0","0",-23.68416667,-46.72555556,DIADEMA,Sao Paulo,CÓRR CURRAL GRANDE,Alto Tietê,"6",,6_4,,SPÁguas,FLU,,1° BPAmb,"1200","866985",LOGGER (FCTH) / TELEMETRIA CHIP CELULAR / SAISP - ESTAÇÃO MISTA E3-286,,ATIVO,,,,,,,,,,,,
"3E-141",FCTH,,PISCINÃO RC 3 - MERCEDEZ BENZ - MONT.,"0","0",-23.69,-46.69222222,DIADEMA,Sao Paulo,RIB. DOS COUROS,Alto Tietê,"6",,6_3,,SPÁguas,FLU,,1° BPAmb,"1200","8669841",,,ATIVO,,,,,,,,,,,,
"3E-142",FCTH,,PISCINÃO RC 3 - MERCEDEZ BENZ,"0","0",-23.68611111,-46.69333333,DIADEMA,Sao Paulo,RIB. DOS COUROS,Alto Tietê,"6",,6_3,,SPÁguas,FLU,,1° BPAmb,"1200","8669841",LOGGER (FCTH) / TELEMETRIA CHIP CELULAR / SAISP - ESTAÇÃO MISTA E3-287,,ATIVO,,,,,,,,,,,,
"3E-143",FCTH,,PISCINÃO RVBo - 01 - BONANÇA,"0","0",-23.49138889,-46.95027778,OSASCO,Barueri,SNA2 R. TIETÊ,Alto Tietê,"6",Rasgão até rio Pinheiros x rio Tietê,6_8,,SPÁguas,FLU,,1° BPAmb,"1100","8669722",LOGGER (FCTH) / TELEMETRIA CHIP CELULAR / SAISP - ESTAÇÃO MISTA E3-295,,ATIVO,,,,,,,,,,,,
"3E-144",FCTH,,COSIPA,"0","0",-23.86972222,-46.44722222,CUBATÃO,Cubatao,R. PIAÇAGUERA (ÁREA LAGUNAR),Baixada Santista,"7",Rio Cubatão,7_2,,SPÁguas,FLU,,3° BPAmb,"3100","77939563",LOGGER (FCTH) / TELEMETRIA CHIP CELULAR / SAISP - SEM OBSERVADOR - NÃO HÁ CURVA -  ESTAÇÃO MISTA E3-293,,ATIVO,,,,,,,,,,,,
"3E-145",FCTH,,PIRACAIA CENTRO,"0","0",-23.05,-46.42916667,PIRACAIA,Piracaia,R. CACHOEIRA,Piracicaba/Capivari/Jundiai,"5",Rio Atibaia,5_1,,SPÁguas,FLU,,5° BPAmb,"5100","866647",LOGGER (FCTH) / TELEMETRIA CHIP CELULAR / SAISP - SEM OBSERVADOR - (ESTAÇÃO MISTA E3-296),,ATIVO,,,,,,,,,,,,
"3E-146",FCTH,,CAMPO LIMPO PAULISTA,"0","0",-23.20888889,-46.91027778,CAMPO LIMPO PAULISTA,Jundiai,R. JUNDIAÍ,Piracicaba/Capivari/Jundiai,"5",Rio Jundiaí,5_7,,SPÁguas,FLU,,5° BPAmb,"5100","866947",LOGGER (FCTH) / TELEMETRIA  CHIP CELULAR / SAISP - (ESTAÇÃO MISTA E3-297),,ATIVO,,,,,,,,,,,,
"3E-147",FCTH,,PINHEIROS 4,"0","0",-23.6275,-46.92333333,SÃO PAULO,Cotia,RIB. PIRAJUÇARA,Alto Tietê,"6",Cotia,6_6,,SPÁguas,FLU,,1° BPAmb,"1200","8669723",LOGGER (FCTH) / TELEMETRIA CHIP CELULAR / SAISP -  (ESTAÇÃO MISTA E3-298),,ATIVO,,,,,,,,,,,,
"3E-148",FCTH,,ARICANDUVA 3,"0","0",-23.59,-46.59138889,SÃO PAULO,Sao Paulo,R. ARICANDUVA,Alto Tietê,"6",Tamanduateí,6_2,,SPÁguas,FLU,,1° BPAmb,"1200","8669921",LOGGER (FCTH) / TELEMETRIA CHIP CELULAR / SAISP - ESTAÇÃO MISTA E3-299,,ATIVO,,,,,,,,,,,,
"3E-149",FCTH,,TAMANDUATEÍ 1,"0","0",-23.66472222,-46.54444444,MAUÁ,Santo Andre,TAMANDUATEÍ,Alto Tietê,"6",Tamanduateí,6_2,,SPÁguas,FLU,,1° BPAmb,"1200","8669923",LOGGER (FCTH) / TELEMETRIA CHIP CELULAR / SAISP -  (ESTAÇÃO MISTA E3-300),,ATIVO,,,,,,,,,,,,
"3E-150",FCTH,,TAMANDUATEÍ 7,"0","0",-23.66416667,-46.58611111,MAUÁ,Sao Bernardo do Campo,CÓRR. ITAPUÃ,Alto Tietê,"6",Tamanduateí,6_2,,SPÁguas,FLU,,1° BPAmb,"1200","8669922",LOGGER (FCTH) / TELEMETRIA CHIP CELULAR / SAISP -  (ESTAÇÃO MISTA E3-301),,ATIVO,,,,,,,,,,,,
"3E-151",FCTH,,CABUÇU 3,"0","0",-23.44638889,-46.68027778,SÃO PAULO,Sao Paulo,R. CABUÇU DE CIMA,Alto Tietê,"6",Rio Pinheiros x rio Tietê até barragem da Penha,6_5,,SPÁguas,FLU,,1° BPAmb,"1100","866991",LOGGER (FCTH) / TELEMETRIA CHIP CELULAR / SAISP -  (ESTAÇÃO MISTA E3-302),,ATIVO,,,,,,,,,,,,
"3E-152",FCTH,,CABUÇU 9,"0","0",-23.48416667,-46.65388889,GUARULHOS,Sao Paulo,R. CABUÇU DE CIMA,Alto Tietê,"6",Rio Pinheiros x rio Tietê até barragem da Penha,6_5,,SPÁguas,FLU,,1° BPAmb,"1100","866991",LOGGER (FCTH) / TELEMETRIA CHIP CELULAR / SAISP -  (ESTAÇÃO MISTA E3-303),,ATIVO,,,,,,,,,,,,
"3E-153",FCTH,,TIQUATIRA 3,"0","0",-23.50694444,-46.58972222,SÃO PAULO,Sao Paulo,RIB. TIQUATIRA,Alto Tietê,"6",Rio Pinheiros x rio Tietê até barragem da Penha,6_5,,SPÁguas,FLU,,1° BPAmb,"1100","8669931",LOGGER (FCTH) / TELEMETRIA CHIP CELULAR / SAISP -  (ESTAÇÃO MISTA E3-304),,ATIVO,,,,,,,,,,,,
"3E-154",FCTH,,RIO BAQUIRIVU - CECAP,"0","0",-23.43472222,-46.59111111,GUARULHOS,Sao Paulo,R. BAQUIRIVU-GUAÇU,Alto Tietê,"6",Rio Pinheiros x rio Tietê até barragem da Penha,6_5,,SPÁguas,FLU,,1° BPAmb,"1100","8669934",LOGGER (FCTH) / TELEMETRIA CHIP CELULAR / SAISP -  (ESTAÇÃO MISTA E3-305),,ATIVO,,,,,,,,,,,,
"3E-155",FCTH,,PISCINÃO RM 7 - CANARINHO - MONTANTE,"0","0",-23.70833333,-46.635,SÃO BERNARDO DO CAMPO,Sao Paulo,SNA1 RIB. DOS MENINOS,Alto Tietê,"6",,6_3,,SPÁguas,FLU,,1° BPAmb,"1200","8669841",LOGGER (FCTH) / TELEMETRIA CHIP CELULAR / SAISP,,ATIVO,,,,,,,,,,,,
"3E-156",FCTH,,PISCINÃO RM 7 - CANARINHO,"0","0",-23.7075,-46.635,SÃO BERNARDO DO CAMPO,Sao Paulo,SNA1 RIB. DOS MENINOS,Alto Tietê,"6",,6_3,,SPÁguas,FLU,,1° BPAmb,"1200","8669841",LOGGER (FCTH) / TELEMETRIA CHIP CELULAR / SAISP - ESTAÇÃO MISTA E3-306,,ATIVO,,,,,,,,,,,,
"3E-157",FCTH,,PISCINÃO RC9 - FORD - MONTANTE,"0","0",-23.65194444,-46.70222222,SÃO BERNARDO DO CAMPO,Sao Paulo,RIB. DOS COUROS,Alto Tietê,"6",,6_3,,SPÁguas,FLU,,1° BPAmb,"1200","8669841",LOGGER (FCTH) / TELEMETRIA CHIP CELULAR / SAISP,,ATIVO,,,,,,,,,,,,
"3E-158",FCTH,,PISCINÃO RC9 - FORD,"0","0",-23.64944444,-46.70277778,SÃO BERNARDO DO CAMPO,Sao Paulo,RIB. DOS COUROS,Alto Tietê,"6",,6_3,,SPÁguas,FLU,,1° BPAmb,"1200","8669841",LOGGER (FCTH) / TELEMETRIA CHIP CELULAR / SAISP - ESTAÇÃO MISTA E3-307,,ATIVO,,,,,,,,,,,,
"3E-159",FCTH,,PISCINÃO RM 11 - SÃO CAETANO,"0","0",-23.61222222,-46.69388889,SÃO CAETANO DO SUL,Sao Paulo,RIB. DOS MENINOS,Alto Tietê,"6",Rio Pinheiros x rio Tietê até barragem da Penha,6_5,,SPÁguas,FLU,,1° BPAmb,"1200","866983",LOGGER (FCTH) / TELEMETRIA CHIP CELULAR / SAISP - ESTAÇÃO MISTA E3-308,,ATIVO,,,,,,,,,,,,
"3E-160",FCTH,,PISCINÃO RM 9 - FACULDADE DE MEDICINA - MONTANTE,"0","0",-23.66888889,-46.66305556,SANTO ANDRÉ,Sao Paulo,RIB. DOS MENINOS,Alto Tietê,"6",Rio Pinheiros x rio Tietê até barragem da Penha,6_5,,SPÁguas,FLU,,1° BPAmb,"1200","866983",LOGGER (FCTH) / TELEMETRIA CHIP CELULAR / SAISP,,ATIVO,,,,,,,,,,,,
"3E-161",FCTH,,PISCINÃO RM 9 - FACULDADE DE MEDICINA,"0","0",-23.665,-46.66416667,SANTO ANDRÉ,Sao Paulo,RIB. DOS MENINOS,Alto Tietê,"6",Rio Pinheiros x rio Tietê até barragem da Penha,6_5,,SPÁguas,FLU,,1° BPAmb,"1200","866983",LOGGER (FCTH) / TELEMETRIA CHIP CELULAR / SAISP - ESTAÇÃO MISTA E3-309,,ATIVO,,,,,,,,,,,,
"3E-162",FCTH,,PISCINÃO RPO2 - PORTUGUESINHA - MONTANTE,"0","0",-23.61777778,-46.95472222,TABOÃO DA SERRA,Cotia,CÓRR. POÁ,Alto Tietê,"6",Cotia,6_6,,SPÁguas,FLU,,1° BPAmb,"1200","8669723",LOGGER (FCTH) / TELEMETRIA CHIP CELULAR / SAISP,,ATIVO,,,,,,,,,,,,
"3E-163",FCTH,,PISCINÃO RPO2 - PORTUGUESINHA,"0","0",-23.61666667,-46.95,TABOÃO DA SERRA,Cotia,CÓRR. POÁ,Alto Tietê,"6",Cotia,6_6,,SPÁguas,FLU,,1° BPAmb,"1200","8669723",LOGGER (FCTH) / TELEMETRIA CHIP CELULAR / SAISP -  (ESTAÇÃO MISTA E3-310),,ATIVO,,,,,,,,,,,,
"3E-164",FCTH,,PISCINÃO RPI2 - JARDIM NOVA REPÚBLICA - MONTANTE,"0","0",-23.64888889,-46.95027778,EMBU,Cotia,RIB. PIRAJUÇARA,Alto Tietê,"6",Cotia,6_6,,SPÁguas,FLU,,1° BPAmb,"1200","8669723",LOGGER (FCTH) / TELEMETRIA CHIP CELULAR / SAISP,,ATIVO,,,,,,,,,,,,
"3E-165",FCTH,,PISCINÃO RPI 2 - JARDIM NOVA REPUBLICA,"0","0",-23.64888889,-46.95027778,EMBU,Cotia,RIB. PIRAJUÇARA,Alto Tietê,"6",Cotia,6_6,,SPÁguas,FLU,,1° BPAmb,"1200","8669723",LOGGER (FCTH) / TELEMETRIA CHIP CELULAR / SAISP - ESTAÇÃO MISTA E3-311,,ATIVO,,,,,,,,,,,,
"3E-166",FCTH,,PISCINÃO RPI 4 - PARQUE PINHEIROS - MONTANTE,"0","0",-23.63333333,-46.93527778,TABOÃO DA SERRA,Cotia,CÓRR. JOAQUIM CACHOEIRA,Alto Tietê,"6",Cotia,6_6,,SPÁguas,FLU,,1° BPAmb,"1200","8669723",LOGGER (FCTH) / TELEMETRIA CHIP CELULAR / SAISP,,ATIVO,,,,,,,,,,,,
"3E-167",FCTH,,PISCINÃO RPI 4 - PARQUE PINHEIROS,"0","0",-23.63333333,-46.93527778,TABOÃO DA SERRA,Cotia,CÓRR. JOAQUIM CACHOEIRA,Alto Tietê,"6",Cotia,6_6,,SPÁguas,FLU,,1° BPAmb,"1200","8669723",LOGGER (FCTH) / TELEMETRIA CHIP CELULAR / SAISP -  (ESTAÇÃO MISTA E3-312),,ATIVO,,,,,,,,,,,,
"3E-168",FCTH,,PISCINÃO JARDIM MUTINGA,"0","0",-23.51111111,-46.92555556,OSASCO,Barueri,"""""""""""""""""""""""""""""""SNA1 R. TIETÊ /""""""""""""""""""""""""""""""""RIB. VERMELHO""""""""""""""""""""""""""""""""""""""""""""""""""""""""""""""",Alto Tietê,"6",Rasgão até rio Pinheiros x rio Tietê,6_8,,SPÁguas,FLU,,1° BPAmb,"1100","8669722",LOGGER (FCTH) / TELEMETRIA CHIP CELULAR / SAISP,,ATIVO,,,,,,,,,,,,
"3E-169",FCTH,,PISCINÃO RV Ba 01 - ROCHEDALE,"0","0",-23.50527778,-46.94,OSASCO,Barueri,SNA1 TIETÊ (CÓRR. DO MUTINGA),Alto Tietê,"6",Rasgão até rio Pinheiros x rio Tietê,6_8,,SPÁguas,FLU,,1° BPAmb,"1100","8669722",LOGGER (FCTH) / TELEMETRIA CHIP CELULAR / SAISP - ESTAÇÃO MISTA E3-313,,ATIVO,,,,,,,,,,,,
"3E-170",FCTH,,PISCINÃO RC 4a - FORD FÁBRICA,"0","0",-23.6675,-46.72638889,SÃO BERNARDO DO CAMPO,Sao Paulo,CÓRR. TABOÃO,Alto Tietê,"6",,6_4,,SPÁguas,FLU,,1° BPAmb,"1200","866985",LOGGER (FCTH) / TELEMETRIA CHIP CELULAR / SAISP,,ATIVO,,,,,,,,,,,,
"3E-171",FCTH,,PISCINÃO RT 1a - PAÇO MUNICIPAL,"0","0",-23.66833333,-46.55638889,MAUÁ,Sao Bernardo do Campo,CÓRR. TABOÃO,Alto Tietê,"6",Tamanduateí,6_2,,SPÁguas,FLU,,1° BPAmb,"1200","8669922",LOGGER (FCTH) / TELEMETRIA CHIP CELULAR / SAISP -  ESTAÇÃO MISTA E3-314,,ATIVO,,,,,,,,,,,,
"3E-172",FCTH,,PISCINÃO RT 3 - PETROBRÁS - MONTANTE,"0","0",-23.65638889,-46.56583333,MAUÁ,Sao Bernardo do Campo,R. TAMANDUATEÍ,Alto Tietê,"6",Tamanduateí,6_2,,SPÁguas,FLU,,1° BPAmb,"1200","8669922",LOGGER (FCTH) / TELEMETRIA CHIP CELULAR / SAISP,,ATIVO,,,,,,,,,,,,
"3E-173",FCTH,,PISCINÃO RT 3 - PETROBRÁS,"0","0",-23.65166667,-46.57138889,MAUÁ,Sao Bernardo do Campo,R. TAMANDUATEÍ,Alto Tietê,"6",Tamanduateí,6_2,,SPÁguas,FLU,,1° BPAmb,"1200","8669922",LOGGER (FCTH) / TELEMETRIA CHIP CELULAR / SAISP -  ESTAÇÃO MISTA E3-315,,ATIVO,,,,,,,,,,,,
"3E-174",FCTH,,PISCINÃO RO 1 - JARDIM SONIA MARIA,"0","0",-23.62777778,-46.57027778,MAUÁ,Sao Caetano do Sul,RIB. DO ORATÓRIO,Alto Tietê,"6",Tamanduateí,6_2,,SPÁguas,FLU,,1° BPAmb,"1200","8669922",LOGGER (FCTH) / TELEMETRIA CHIP CELULAR / SAISP -  ESTAÇÃO MISTA E3-316,,ATIVO,,,,,,,,,,,,
"3E-175",FCTH,,PISCINÃO RT 3a - CORUMBÉ - MONTANTE,"0","0",-23.65361111,-46.53388889,MAUÁ,Santo Andre,SNA1 R. TAMANDUATEÍ,Alto Tietê,"6",Tamanduateí,6_2,,SPÁguas,FLU,,1° BPAmb,"1200","8669923",LOGGER (FCTH) / TELEMETRIA CHIP CELULAR / SAISP,,ATIVO,,,,,,,,,,,,
"3E-176",FCTH,,PISCINÃO RT 3a - CORUMBÉ,"0","0",-23.65305556,-46.53527778,MAUÁ,Santo Andre,SNA1 R. TAMANDUATEÍ,Alto Tietê,"6",Tamanduateí,6_2,,SPÁguas,FLU,,1° BPAmb,"1200","8669923",LOGGER (FCTH) / TELEMETRIA CHIP CELULAR / SAISP -  ESTAÇÃO MISTA E3-317,,ATIVO,,,,,,,,,,,,
"3E-177",FCTH,,PISCINÃO RC 2 - PIRAPORINHA CASA GRANDE - MONTANTE,"0","0",-23.69611111,-46.70277778,DIADEMA,Sao Paulo,RIB. DOS COUROS,Alto Tietê,"6",,6_4,,SPÁguas,FLU,,1° BPAmb,"1200","866985",LOGGER (FCTH) / TELEMETRIA CHIP CELULAR / SAISP,,ATIVO,,,,,,,,,,,,
"3E-178",FCTH,,PISCINÃO RC2 - PIRAPORINHA CASA GRANDE,"0","0",-23.69583333,-46.70277778,DIADEMA,Sao Paulo,RIB. DOS COUROS,Alto Tietê,"6",,6_4,,SPÁguas,FLU,,1° BPAmb,"1200","866985",LOGGER (FCTH) / TELEMETRIA CHIP CELULAR / SAISP - ESTAÇÃO MISTA E3-318,,ATIVO,,,,,,,,,,,,
"3E-179",FCTH,,PISCINÃO RC 1 - VILA ROSA - MONTANTE,"0","0",-23.70111111,-46.70666667,SÃO BERNARDO DO CAMPO,Sao Paulo,RIB. DOS COUROS,Alto Tietê,"6",,6_4,,SPÁguas,FLU,,1° BPAmb,"1200","866985",LOGGER (FCTH) / TELEMETRIA CHIP CELULAR / SAISP,,ATIVO,,,,,,,,,,,,
"3E-180",FCTH,,PISCINÃO RC 1 - VILA ROSA,"0","0",-23.7,-46.705,SÃO BERNARDO DO CAMPO,Sao Paulo,RIB. DOS COUROS,Alto Tietê,"6",,6_4,,SPÁguas,FLU,,1° BPAmb,"1200","866985",LOGGER (FCTH) / TELEMETRIA CHIP CELULAR / SAISP - ESTAÇÃO MISTA E3-319,,ATIVO,,,,,,,,,,,,
"3E-181",FCTH,,PISCINÃO RM 2 / RM 3 - VOLKS DEMARCHI - MONTANTE,"0","0",-23.73305556,-46.66222222,SÃO BERNARDO DO CAMPO,Sao Paulo,RIB. DOS MENINOS,Alto Tietê,"6",,6_3,,SPÁguas,FLU,,1° BPAmb,"1200","8669841",LOGGER (FCTH) / TELEMETRIA CHIP CELULAR / SAISP,,ATIVO,,,,,,,,,,,,
"3E-182",FCTH,,PISCINÃO RM 2 / RM 3 - VOLKS DEMARCHI,"0","0",-23.73055556,-46.66111111,SÃO BERNARDO DO CAMPO,Sao Paulo,RIB. DOS MENINOS,Alto Tietê,"6",,6_3,,SPÁguas,FLU,,1° BPAmb,"1200","8669841",LOGGER (FCTH) / TELEMETRIA CHIP CELULAR / SAISP - ESTAÇÃO MISTA E3-320,,ATIVO,,,,,,,,,,,,
"3E-183",FCTH,,PISCINÃO RM 4 - CHRYSLER - MONTANTE,"0","0",-23.7325,-46.64777778,SÃO BERNARDO DO CAMPO,Sao Bernardo do Campo,CÓRR. DO JARDIM SILVANA,Alto Tietê,"6",,6_3,,SPÁguas,FLU,,1° BPAmb,"1200","8669841",LOGGER (FCTH) / TELEMETRIA CHIP CELULAR / SAISP,,ATIVO,,,,,,,,,,,,
"3E-184",FCTH,,PISCINÃO RM 4 - CHRYSLER,"0","0",-23.73166667,-46.64944444,SÃO BERNARDO DO CAMPO,Sao Bernardo do Campo,CÓRR. DO JARDIM SILVANA,Alto Tietê,"6",,6_3,,SPÁguas,FLU,,1° BPAmb,"1200","8669841",LOGGER (FCTH) / TELEMETRIA CHIP CELULAR / SAISP - ESTAÇÃO MISTA E3-321,,ATIVO,,,,,,,,,,,,
"3E-185",FCTH,,PISCINÃO RM 5 - CAPITÃO CASA,"0","0",-23.72305556,-46.66388889,SÃO BERNARDO DO CAMPO,Sao Paulo,SNA1 RIB. DOS MENINOS,Alto Tietê,"6",,6_3,,SPÁguas,FLU,,1° BPAmb,"1200","8669841",LOGGER (FCTH) / TELEMETRIA CHIP CELULAR / SAISP - ESTAÇÃO MISTA E3-322,,ATIVO,,,,,,,,,,,,
"3E-186",FCTH,,PISCINÃO RM 6 - PRAÇA DOS BOMBEIROS,"0","0",-23.72166667,-46.64527778,SÃO BERNARDO DO CAMPO,Sao Paulo,SNA1 RIB. DOS MENINOS,Alto Tietê,"6",,6_3,,SPÁguas,FLU,,1° BPAmb,"1200","8669841",LOGGER (FCTH) / TELEMETRIA CHIP CELULAR / SAISP - ESTAÇÃO MISTA E3-323,,ATIVO,,,,,,,,,,,,
"3E-187",FCTH,,PISCINÃO RC 2a - MERCEDES PAULICÉIA - MONTANTE,"0","0",-23.67194444,-46.69083333,SÃO BERNARDO DO CAMPO,Sao Paulo,RIB. DOS COUROS,Alto Tietê,"6",,6_3,,SPÁguas,FLU,,1° BPAmb,"1200","8669841",LOGGER (FCTH) / TELEMETRIA CHIP CELULAR / SAISP,,ATIVO,,,,,,,,,,,,
"3E-188",FCTH,,PISCINÃO RC 2a - MERCEDES PAULICÉIA,"0","0",-23.66944444,-46.69055556,SÃO BERNARDO DO CAMPO,Sao Paulo,RIB. DOS COUROS,Alto Tietê,"6",,6_3,,SPÁguas,FLU,,1° BPAmb,"1200","8669841",LOGGER (FCTH) / TELEMETRIA CHIP CELULAR / SAISP - ESTAÇÃO MISTA E3-324,,ATIVO,,,,,,,,,,,,
"3E-189",FCTH,,Rio Tietê - Jardim Romano,,,-23.479425,-46.385854,São Paulo / Guarulhos,Sao Paulo,Rio Tietê,,,,6_1,Alto Tietê,SPÁguas,FLU,,1° BPAmb,"1300","8669937",,,ATIVO,,,,,,,,,,,,
"3E-190",FCTH,,Rio Tietê - São Miguel,,,-23.47315,-46.42307,São Paulo / Guarulhos,Sao Paulo,Rio Tietê,,,,6_5,Alto Tietê,SPÁguas,FLU,,1° BPAmb,"1300","8669937",,,ATIVO,,,,,,,,,,,,
"3E-190",FCTH,,SÃO MIGUEL ,"2009","2025",-23.47315,-46.42307,,,,,,,,,SPÁguas,FLU,,,,,,,ATIVO,,,,,,,,,,,,
"3E-191",FCTH,,Ribeirão dos Meninos - Clube São José,,,-23.632978,-46.583518,São Paulo / S. C. do Sul,Sao Paulo,Ribeirão dos Meninos,,,,6_2,Alto Tietê,SPÁguas,FLU,,1° BPAmb,"1200","8669922",,,ATIVO,,,,,,,,,,,,
"3E-192",FCTH,,Rio Tamanduateí - Prosperidade,,,-23.61085,-46.544628,Santo André / S. C. do Sul,Santo Andre,Rio Tamanduateí,,,,6_2,Alto Tietê,SPÁguas,FLU,,1° BPAmb,"1200","8669923",,,ATIVO,,,,,,,,,,,,
"3E-193",FCTH,,Rio Tiete - Itaquaquecetuba ,,,-23.473575,-46.347951,Itaquaquecetuba,Itaquaquecetuba,Rio Tietê,,,,6_1,Alto Tietê,SPÁguas,FLU,,1° BPAmb,"1300","8669937",,,ATIVO,,,,,,,,,,,,
3F-001,FCTH,,ITANHAÉM,"1980","1993",-24.17888889,-46.94638889,ITANHAÉM,Itanhaem,R. ITANHAÉM,Baixada Santista,"7",Rio Branco / Rio Preto,7_3,,SPÁguas,FLU,924,3° BPAmb,"3100","77939623",LOGGER (FCTH) / TELEMETRIA CHIP CELULAR / SAISP - SEM OBSERVADOR - SÓ  COTAS - HÁ SENSOR DE CHUVA (VERIFICAR SE PODE CONSIDERAR ESTAÇÃO MISTA F3-005),,ATIVO,,,,,,,,,,,,
3F-002,,,FAZENDA ITAÓCA,"1980","1986",-24.08333333,-46.86,MONGAGUÁ,Itanhaem,R. AGUAPEÚ,Baixada Santista,"7",Rio Branco / Rio Preto,7_3,,SPÁguas,FLU,97,3° BPAmb,"3100","77939621",,,,,,,,,,,,,,,
3F-003,,,FAZENDA ÁGUA QUENTE,"1980","1990",-24.06666667,-46.92,ITANHAÉM,Itanhaem,R. BRANCO,Baixada Santista,"7",Rio Branco / Rio Preto,7_3,,SPÁguas,FLU,264,3° BPAmb,"3100","77939622",,,,,,,,,,,,,,,
3F-005,,,MONGAGUÁ,"0","0",-24.08861111,-46.78527778,MONGAGUÁ,Itanhaem,R. BICHORÓ,Baixada Santista,"7",Rio Branco / Rio Preto,7_3,,SPÁguas,FLU,29,3° BPAmb,"3100","7793967",LOGGER (SOLINST) - S/ OBSERVADOR - NÃO HÁ CURVA,,ATIVO,,,L,,,,,,,,,
3F-006,,,ITANHAÉM,"0","0",-24.18277778,-46.95194444,ITANHAÉM,Peruibe,R. ITANHAÉM,Baixada Santista,"7",Rio Branco / Rio Preto,7_3,,SPÁguas,FLU,924,3° BPAmb,"3100","77939623",LOGGER (SOLINST) - S/ OBSERVADOR - NÃO HÁ CURVA,,ATIVO,,,L,,,,,,,,,
3F-007,FCTH,,CLÍNICA,"0","0",-24.09388889,-46.88,MONGAGUÁ,Itanhaem,R. AGUAPEÚ,Baixada Santista,"7",Rio Branco / Rio Preto,7_3,,SPÁguas,FLU,114,3° BPAmb,"3100","77939621",LOGGER (ATIVA)/TELEMETRIA SATÉLITE - SEM OBSERVADOR -  NÃO HÁ CURVA - ESTAÇÃO MISTA F3-012,,ATIVO,,O,L,T,,,,,,,,
3F-008,FCTH,,E.E.SABESP - BRANCO,"0","0",-24.08055556,-46.96166667,ITANHAÉM,Itanhaem,R. BRANCO,Baixada Santista,"7",Rio Branco / Rio Preto,7_3,,SPÁguas,FLU,267,3° BPAmb,"3100","77939622",LOGGER (ATIVA)/TELEMETRIA SATÉLITE - SEM OBSERVADOR - NÃO HÁ CURVA,,ATIVO,,,L,T,Q,,,,,,,
3F-009,FCTH,,FAZENDA MAMBU,"0","0",-24.03388889,-46.98666667,ITANHAÉM,Juquitiba,R. MAMBU,Ribeira de Iguape / Litoral Sul,"11",Alto Juquiá,11_2,,SPÁguas,FLU,89.6,1° BPAmb,"1200","77944992",LOGGER (ATIVA)/TELEMETRIA SATÉLITE -SEM OBSERVADOR NÃO HÁ CURVA,,ATIVO,,,L,T,,,,,,,,
3F-010,FCTH,,FAZENDA CAEPUPU,"2024","2025",-24.131604,-46.947053,ITANHAÉM,,RIO ITANHAÉM-RIO ITARIRU OU ITARURU,Baixada Santista,"7",,7_3,,SPÁguas,FLU,,,,,,,ATIVO,,,,,,,,,,,,
4B-001,,,PIONEIROS,"1944","1970",-20.5,-48,GUARÁ,Ipua,R. SAPUCAÍ-MIRIM,Sapucaí/Grande,"8",Sapucaí,8_1,,SPÁguas,FLU,4748,4° BPAmb,"4300","8686156",,,,,,,,,,,,,,,
4B-006,,,FAZENDA VELHA,"1929","1946",-20.66666667,-47.74,NUPORANGA,Nuporanga,R. SAPUCAÍ-MIRIM,Sapucaí/Grande,"8",Sapucaí,8_1,,SPÁguas,FLU,3863,4° BPAmb,"4300","8686177",,,,,,,,,,,,,,,
4B-012,,,SÍTIO SANTA FÉ,"1971","1981",-20.51666667,-47.98,SÃO JOAQUIM DA BARRA,Sao Joaquim da Barra,R. SAPUCAÍ-MIRIM,Sapucaí/Grande,"8",Sapucaí,8_1,,SPÁguas,FLU,4744,4° BPAmb,"4300","8686158",,,,,,,,,,,,,,,
4B-013,,,SÍTIO CACHOEIRA,"1980","1996",-20.6,-47.84,SÃO JOSÉ DA BELA VISTA,Sao Joaquim da Barra,RIB. SALGADO,Sapucaí/Grande,"8",Sapucaí,8_1,,SPÁguas,FLU,259,4° BPAmb,"4300","8686173",REGISTRADOR MECÂNICO - DE 1982 A 1986 S/ VAZÕES,,,,,,,,,,,,,,
4B-014,,,BATATAIS,"1980","2005",-20.86666667,-47.64,BATATAIS,Batatais,RIB. DOS BATATAIS,Sapucaí/Grande,"8",Sapucaí,8_1,,SPÁguas,FLU,178,4° BPAmb,"4400","868642",REGISTRADOR MECÂNICO / LOGGER,,,,,,,,,,,,,,
4B-015,FCTH,"61776800",PATROCÍNIO PAULISTA,"1980","2024",-20.63361111,-47.34055556,PATROCÍNIO PAULISTA,Patrocinio Paulista,RIB. SAPUCAIZINHO,Sapucaí/Grande,"8",Sapucaí,8_1,,SPÁguas,FLU,276,4° BPAmb,"4300","868664",LOGGER (FCTH) / FOI REGISTRADOR MECÂNICO - DE 2007 A 2010 S/ VAZÕES - (ESTAÇÃO MISTA B4-061),,ATIVO,,O,L,,Q,,,,,,,
4B-016,,,BURITI,"1980","1997",-20.615,-47.82444444,SÃO JOSÉ DA BELA VISTA,Sao Joaquim da Barra,RIB. BURITI,Sapucaí/Grande,"8",Sapucaí,8_1,,SPÁguas,FLU,84,4° BPAmb,"4300","8686174",REGISTRADOR MECÂNICO,,,,,,,,,,,,,,
4B-017,,,GUARÁ,"1980","2001",-20.41666667,-48.04,GUARÁ,Ipua,RIB. DA ESTIVA,Sapucaí/Grande,"8",Sapucaí,8_1,,SPÁguas,FLU,264,4° BPAmb,"4300","8686156",REGISTRADOR MECÂNICO,,,,,,,,,,,,,,
4C-001,,"61834500",CLUBE DE REGATAS,"1941","2025",-21.10361111,-47.90722222,RIBEIRÃO PRETO,Sertaozinho,R. PARDO,Pardo,"4",Ribeirão Preto,4_5,,SPÁguas,FLU,10679,4° BPAmb,"4400","8684217",LOGGER (CAMPBELL) /TELEMETRIA CHIP CELULAR - (ESTAÇÃO MISTA C4-075),,ATIVO,,,L,T,Q,,,,,,,
4C-002,,,SANTO ANTÔNIO DA ALEGRIA,"1959","2024",-21.08555556,-47.17611111,SANTO ANTÔNIO DA ALEGRIA,Santo Antonio da Alegria,RIB. PINHEIRINHO,Sapucaí/Grande,"8",Sapucaí,8_1,,SPÁguas,FLU,449,4° BPAmb,"4400","8686973",,,ATIVO,,,,,Q,,,,,,,
4C-005,,,FAZENDA SANTA CATARINA,"1970","1995",-21.9,-47.46,PIRASSUNUNGA,Porto Ferreira,R. MOJI-GUAÇU,Mogi-Guaçu,"9",Alto Mogi,9_1,,SPÁguas,FLU,9650,4° BPAmb,"4400","86845972",,,,,,,,,,,,,,,
4C-007,FCTH,"61910000",PORTO CUNHA BUENO,"1970","2024",-21.69666667,-47.97611111,SÃO CARLOS  *(TJ),Americo Brasiliense,R. MOJI-GUAÇU,Mogi-Guaçu,"9",,9_3,,SPÁguas,FLU,12291,4° BPAmb,"4400","8684542",,,ATIVO,,,,,,,,,,,,
4C-009,,,FAZENDA SANTA FILOMENA,"1980","1995",-21.38333333,-47.42,CAJURU,Sao Simao,R. CUBATÃO,Pardo,"4",Médio Pardo,4_4,,SPÁguas,FLU,322,4° BPAmb,"4400","86842519",,,,,,,,,,,,,,,
4C-010,,,ESTÂNCIA ELDORADO,"1980","1986",-21.18333333,-47.46,CAJURU,Cajuru,R. ARARAQUARA,Pardo,"4",Médio Pardo,4_4,,SPÁguas,FLU,456,4° BPAmb,"4400","8684241",,,,,,,,,,,,,,,
4C-011,FCTH,"61898200",FAZENDA SÃO JOSÉ,"1989","2025",-21.865,-47.11305556,CASA BRANCA  *(PARDO),Casa Branca,RIB. DOS COCAIS,Mogi-Guaçu,"9",Jaguari Mirim,9_2,,SPÁguas,FLU,72,5° BPAmb,"5200","8684624",LOGGER (SOLINST) - FOI REGISTRADOR MECÂNICO,,ATIVO,,,L,,,,,,,,,
4C-012,FCTH,"61822000",FAZENDA SÃO JOÃO DA MATA,"1989","2025",-21.63638889,-47.05111111,CASA BRANCA,Casa Branca,RIB. LAMBARI,Pardo,"4",Rio Tambaú,4_2,,SPÁguas,FLU,67,5° BPAmb,"5200","86842735",LOGGER (SOLINST) - SEM OBSERVADOR - FOI REGISTRADOR MECÂNICO - DE 2005 A 2008 S/ VAZÕES,,ATIVO,,,L,,,,,,,,,
4C-013,IPT,,JAGUARI-MIRIM (SP-340),"0","0",-21.99111111,-47.04583333,CASA BRANCA  *(PARDO),Aguai,R. JAGUARI-MIRIM,Mogi-Guaçu,"9",Jaguari Mirim,9_2,,SPÁguas,FLU,1445,5° BPAmb,"5200","8684633",SEM OBSERVADOR - NÃO HÁ CURVA,,PARALIZADO,,,,,,,,,,,,
4C-014,IPT,,FOZ DOS COCAIS,"2013","2024",-21.91277778,-47.26861111,SANTA CRUZ DAS PALMEIRAS,Santa Cruz das Palmeiras,RIB. DOS COCAIS,Mogi-Guaçu,"9",Alto Mogi,9_1,,SPÁguas,FLU,408,5° BPAmb,"5200","86845992",LOGGER (SOLINST) - SEM OBSERVADOR,,PARALIZADO,,,,,,,,,,,,
4C-015,,,ACAD. DA FORÇA AÉREA-AFA,"0","0",-21.98638889,-47.34555556,PIRASSUNUNGA,Pirassununga,R. MOJI-GUAÇU,Mogi-Guaçu,"9",Alto Mogi,9_1,,SPÁguas,FLU,7314,5° BPAmb,"5200","86845991",SEM OBSERVADOR - NÃO HÁ CURVA,,,,,,,,,,,,,,
4C-016,,,SÍTIO PALMEIRAS,"2008","2021",-21.85861111,-47.24555556,SANTA CRUZ DAS PALMEIRAS,Santa Cruz das Palmeiras,RIB. DO PRATA (ou FEIO),Mogi-Guaçu,"9",Jaguari Mirim,9_2,,SPÁguas,FLU,53,5° BPAmb,"5200","8684622",LOGGER RETIRADO,,,,,,,,,,,,,,
4C-017,FCTH,,PÉ DE GIGANTE-VERTEDOR,"0","0",-21.64972222,-47.76638889,SANTA RITA DO PASSA QUATRO,Luis Antonio,CÓRR. PAULICÉIA,Mogi-Guaçu,"9",A PREENCHER,9_3,,IAG,FLU,12,4° BPAmb,"4400","8684557",LOGGER DO IAG (NÁO TEMOS OS DADOS) - VERTEDOR - NÃO HÁ CURVA,,ATIVO,,,L,,V,,,,,,,
4C-018,,,BONFIM PAULISTA,"0","0",-21.26694444,-47.98222222,RIBEIRÃO PRETO,Dumont,RIB. PRETO,Mogi-Guaçu,"9",Médio Mogi Inferior,9_4,,SPÁguas,FLU,56.6,4° BPAmb,"4400","868441",LOGGER (VAISALA) / TELEMETRIA CHIP CELULAR - SEM OBSERVADOR - (ESTAÇÃO MISTA C4-109),,,,,,,,,,,,,,
4C-019,,,ANTONIO SALOMONE,"2018","2020",-21.18,-47.9825,RIBEIRÃO PRETO,Sertaozinho,RIB. PRETO,Mogi-Guaçu,"9",Médio Mogi Inferior,9_4,,SPÁguas,FLU,147,4° BPAmb,"4400","8684323",LOGGER (FCTH) / TELEMETRIA CHIP CELULAR (Furtado) - SEM OBSERVADOR - (ESTAÇÃO MISTA C4-110),,,,,,,,,,,,,,
4C-020,,,RODOVIÁRIA,"0","0",-21.175,-47.97444444,RIBEIRÃO PRETO,Sertaozinho,RIB. PRETO,Mogi-Guaçu,"9",Médio Mogi Inferior,9_4,,SPÁguas,FLU,205,4° BPAmb,"4400","8684323",,,,,,,,,,,,,,,
4C-021,,,CORPO DE BOMBEIROS,"0","0",-21.16805556,-47.97277778,RIBEIRÃO PRETO,Sertaozinho,RIB. PRETO,Mogi-Guaçu,"9",Médio Mogi Inferior,9_4,,SPÁguas,FLU,252,4° BPAmb,"4400","8684323",,,,,,,,,,,,,,,
4C-022,,,AVENIDA INDEPENDÊNCIA,"0","0",-21.18,-47.96055556,RIBEIRÃO PRETO,Sertaozinho,CÓRR. DO RETIRO SAUDOSO,Mogi-Guaçu,"9",Médio Mogi Inferior,9_4,,SPÁguas,FLU,44.6,4° BPAmb,"4400","8684323",,,,,,,,,,,,,,,
4C-500Z,FCTH,,FAZENDA SÃO JOSÉ,"2009","2025",-21.9075,-47.705,DESCALVADO,Descalvado,R. BONITO,Mogi-Guaçu,"9",,9_3,,SPÁguas,PIEZO,,4° BPAmb,"4400","8684583",LEITURAS NÃO DIÁRIAS - PARALISADAS EM 2023 - LOGGER (SOLINST),,ATIVO,,C,L,,,,,,,,Guarani,666.789
4C-501Z,FCTH,,FAZENDA OURO VERDE,"2008","2025",-21.64333333,-47.73583333,SANTA RITA DO PASSA QUATRO,Luis Antonio,CÓRR. PAULICÉIA,Mogi-Guaçu,"9",,9_3,,SPÁguas,PIEZO,,4° BPAmb,"4400","8684557",LOGGER (SOLINST) - SEM OBSERVADOR (AS LEITURAS GRAVADAS SÃO RETIRADAS DAS INSPEÇÕES),,ATIVO,,C,L,,,,,,,,Guarani,682.462
4C-502Z,FCTH,,SÍTIO SANTA CRUZ,"2006","2025",-21.62083333,-47.7675,SANTA RITA DO PASSA QUATRO,Luis Antonio,CÓRR. PAULICÉIA,Mogi-Guaçu,"9",,9_3,,SPÁguas,PIEZO,,4° BPAmb,"4400","8684557",SEM OBSERVADOR (AS LEITURAS GRAVADAS SÃO RETIRADAS DAS INSPEÇÕES) - POÇO NORMALMENTE SECO,,INATIVO,,C,,,,,,,,,Guarani,684.688
4C-503Z,FCTH,,CHÁCARA SANTA MARIA,"2006","2025",-21.61,-47.75361111,SANTA RITA DO PASSA QUATRO,Luis Antonio,CÓRR. PAULICÉIA,Mogi-Guaçu,"9",,9_3,,SPÁguas,PIEZO,,4° BPAmb,"4400","8684556",LOGGER (SOLINST) - SEM OBSERVADOR (AS LEITURAS GRAVADAS SÃO RETIRADAS DAS INSPEÇÕES),,ATIVO,,C,L,,,,,,,,Guarani,713.285
4C-504Z,FCTH,,SÍTIO CAPÃO GRANDE,"2006","2025",-21.58722222,-47.68944444,SANTA RITA DO PASSA QUATRO,Luis Antonio,R. BEBEDOURO,Mogi-Guaçu,"9",,9_3,,SPÁguas,PIEZO,,4° BPAmb,"4400","8684572",LOGGER (SOLINST) - SEM OBSERVADOR (AS LEITURAS GRAVADAS SÃO RETIRADAS DAS INSPEÇÕES),,ATIVO,,C,L,,,,,,,,Guarani,663.557
4C-505Z,FCTH,,HORTO FLORESTAL,"2006","2025",-21.57916667,-47.705,SANTA RITA DO PASSA QUATRO,Luis Antonio,R. BEBEDOURO,Mogi-Guaçu,"9",,9_3,,SPÁguas,PIEZO,,4° BPAmb,"4400","8684572",LOGGER (SOLINST) - SEM OBSERVADOR (AS LEITURAS GRAVADAS SÃO RETIRADAS DAS INSPEÇÕES),,ATIVO,,C,L,,,,,,,,Guarani,754.392
4C-506Z,FCTH,,FAZENDA JAPI,"2018","2025",-21.69833333,-47.98083333,SÃO CARLOS  *(TJ),Americo Brasiliense,CÓRR. DO CORISCO,Mogi-Guaçu,"9",,9_3,,SPÁguas,PIEZO,,4° BPAmb,"4400","8684542",LOGGER (SOLINST) - SEM OBSERVADOR (AS LEITURAS GRAVADAS SÃO RETIRADAS DAS INSPEÇÕES),,ATIVO,,C,L,,,,,,,,Guarani,616.43
4C-507Z,FCTH,,ARREPENDIDO - M.D.,"2019","2025",-21.15777778,-47.79583333,RIBEIRÃO PRETO,Ribeirao Preto,RIB. DA FIGUEIRA,Pardo,"4",Ribeirão Preto,4_5,,SPÁguas,PIEZO,,4° BPAmb,"4400","86842181",LOGGER (SOLINST) - SEM OBSERVADOR (AS LEITURAS GRAVADAS SÃO RETIRADAS DAS INSPEÇÕES),,ATIVO,,C,L,,,,,,,,Guarani,522.313
4C-508Z,FCTH,,PÉ DE GIGANTE 2,"2019","2025",-21.03444444,-47.61083333,ALTINÓPOLIS,Brodowski,CÓRR. SELADO,Pardo,"4",Ribeirão Preto,4_5,,SPÁguas,PIEZO,,4° BPAmb,"4400","86842322",LOGGER (SOLINST) - SEM OBSERVADOR (AS LEITURAS GRAVADAS SÃO RETIRADAS DAS INSPEÇÕES),,ATIVO,,C,L,,,,,,,,Guarani,596.747
4C-509Z,FCTH,,PENITENCIÁRIA,"2023","2025",-21.97333333,-47.12888889,CASA BRANCA,Casa Branca,R. JAGUARI MIRIM,Mogi-Guaçu,"9",Jaguari Mirim,9_2,,SPÁguas,PIEZO,,5° BPAmb,"5200","8684631",LOGGER (SOLINST) - SEM OBSERVADOR (AS LEITURAS GRAVADAS SÃO RETIRADAS DAS INSPEÇÕES)-checar boca do poço,,ATIVO,,C,L,,,,,,,,Tubarão,607
4C-510Z,FCTH,,GRAMADO,"2023","2023",-21.89027778,-47.03277778,CASA BRANCA,Casa Branca,R. VERDINHO,Pardo,"4",Rio Tambaú,4_2,,SPÁguas,PIEZO,,5° BPAmb,"5200","86842744",LOGGER (SOLINST) - SEM OBSERVADOR (AS LEITURAS GRAVADAS SÃO RETIRADAS DAS INSPEÇÕES)-checar boca do poço,,ATIVO,,C,L,,,,,,,,Tubarão,713
"4D-001",FCTH,"62632000",USINA ESTER,"1943","2025",-22.65805556,-47.25583333,COSMÓPOLIS,Cosmopolis,R. JAGUARI,Piracicaba/Capivari/Jundiai,"5",,5_3,,SPÁguas,FLU,3394,5° BPAmb,"5200","8666521",LOGGER (FCTH) / TELEMETRIA CHIP CELULAR / SAISP - (ESTAÇÃO MISTA D4-052),,ATIVO,,,L,T,,,,,,,,
4D-006J,,,MONJOLINHO - JUSANTE,"0","0",-22.78055556,-47.85444444,PIRACICABA,Piracicaba,RIB. DOS MARINS,Tietê/ Sorocaba,"10",Médio Tietê Inferior,10_5,,SPÁguas,FLU,22,5° BPAmb,"5200","866794",REGISTRADOR MECÂNICO - NÃO HÁ MED. VAZÃO,,,,,,,,,,,,,,
4D-006M,,,MONJOLINHO - MONTANTE,"0","0",-22.78055556,-47.85444444,PIRACICABA,Piracicaba,RIB. DOS MARINS,Tietê/ Sorocaba,"10",Médio Tietê Inferior,10_5,,SPÁguas,FLU,22,5° BPAmb,"5200","866794",LOGGER - NÃO HÁ MED. VAZÃO,,,,,,,,,,,,,,
4D-006P,,,MONJOLINHO - PONTE,"0","0",-22.78,-47.85472222,PIRACICABA,Piracicaba,RIB. DOS MARINS,Tietê/ Sorocaba,"10",Médio Tietê Inferior,10_5,,SPÁguas,FLU,22,5° BPAmb,"5200","866794",LOGGER - NÃO HÁ MED. VAZÃO,,,,,,,,,,,,,,
"4D-007",FCTH,"62715000",ARTEMIS,"1943","2025",-22.67916667,-47.92861111,PIRACICABA,São Pedro,R. PIRACICABA,Piracicaba/Capivari/Jundiai,"5",,5_6,,SPÁguas,FLU,11040,5° BPAmb,"5200","8666175",LOGGER (FCTH) / TELEMETRIA CHIP CELULAR / SAISP - (ESTAÇÃO MISTA D4-061),,ATIVO,,,L,T,Q,,,,,,,
"4D-008",FCTH,,CAPTAÇÃO DE LIMEIRA,"1960","2025",-22.66277778,-47.33166667,LIMEIRA,Limeira,R. JAGUARI,Piracicaba/Capivari/Jundiai,"5",,5_4,,SPÁguas,FLU,4022,5° BPAmb,"5200","866636",ESTAÇÃO DESATIVADA DE JUL/74 A JUL/22 - REINSTALADO EM 2022 - LOGGER (FCTH) / TELEMETRIA CHIP CELULAR / SAISP - SEM OBSERVADOR ESTAÇÃO MISTA D4-070,,ATIVO,,O,L,T,Q,,,,,,,
"4D-009",FCTH,"62690000",ACIMA DE PAULÍNIA,"1947","2025",-22.745,-47.16361111,PAULÍNIA,Paulinia,R. ATIBAIA,Piracicaba/Capivari/Jundiai,"5",Rio Atibaia,5_1,,SPÁguas,FLU,2559,5° BPAmb,"5100","866641",LOGGER (FCTH) / TELEMETRIA CHIP CELULAR / SAISP - FOI REGISTRADOR MECÂNICO - (ESTAÇÃO MISTA D4-120),,ATIVO,,,L,T,,,,,,,,
"4D-010",FCTH,"62695000",CARIOBA,"1929","2024",-22.71111111,-47.38694444,AMERICANA,Santa Barbara dOeste,R. PIRACICABA,Piracicaba/Capivari/Jundiai,"5",,5_4,,SPÁguas,FLU,7205,5° BPAmb,"5200","866635",LOGGER (FCTH) / TELEMETRIA CHIP CELULAR / SAISP - PARALISADO LOGGER EM 2016 - DE 1958 A 1970 E DE 1980 A 1999 S/ VAZÕES - (ESTAÇÃO MISTA D4-097),,ATIVO,,O,L,T,Q,,,,,,,
"4D-012",FCTH,,ESALQ - USP,"2023","2025",-22.70611111,-47.75055556,PIRACICABA,Piracicaba,RIB. PIRACICAMIRIM,Piracicaba/Capivari/Jundiai,"5",,5_6,,SPÁguas,FLU,130,5° BPAmb,"5200","8666193",LOGGER (SOLINST) - SEM OBSERVADOR,,ATIVO,,,L,T,,,,,,,,
"4D-013",,,FOZ DO JAGUARI,"1999","2018",-22.67444444,-47.33305556,LIMEIRA,Limeira,R. JAGUARI,Piracicaba/Capivari/Jundiai,"5",,5_4,,SPÁguas,FLU,4329,5° BPAmb,"5200","866636",LOGGER (FCTH) / TELEMETRIA CHIP CELULAR / SAISP - PARALISADO LOGGER EM 2016 - (ESTAÇÃO MISTA D4-121) - DESATIVADO EM 23/06/2022,,,,,,,,,,,,,,
"4D-015",FCTH,"62697350",PIRACICABA,"2002","2025",-22.72444444,-47.78833333,PIRACICABA,Piracicaba,R. PIRACICABA,Piracicaba/Capivari/Jundiai,"5",,5_6,,SPÁguas,FLU,8500,5° BPAmb,"5200","8666192",LOGGER (FCTH) / TELEMETRIA CHIP CELULAR / SAISP -  SEM OBSERVADOR - ESTAÇÃO MISTA D4-095,,ATIVO,,,L,T,,,,,,,,
"4D-018",,,BATOVI,"1970","2014",-22.405,-47.715,RIO CLARO,Ipeuna,R. CORUMBATAÍ,Piracicaba/Capivari/Jundiai,"5",Rio Corumbataí,5_5,,SPÁguas,FLU,489,5° BPAmb,"5200","8666263",DE 1974 A 1976 E DE 1991 A 2012 S/ VAZÕES - FOI TELEMETRIA,,,,,,,,,,,,,,
"4D-021",IPT,,RECREIO,"1972","2025",-22.58166667,-47.82055556,CHARQUEADA,São Pedro,R. CORUMBATAÍ,Piracicaba/Capivari/Jundiai,"5",,5_6,,SPÁguas,FLU,1581,5° BPAmb,"5200","866618",,,PARALIZADO,,,,,,,,,,,,
"4D-022",,,SÍTIO SÃO SILVESTRE,"1976","1982",-22.33333333,-47.2,CONCHAL,Conchal,RIB. DO FERRAZ,Mogi-Guaçu,"9",Alto Mogi,9_1,,SPÁguas,FLU,384,5° BPAmb,"5200","8684763",REGISTRADOR MECÂNICO,,,,,,,,,,,,,,
"4D-023",FCTH,"62706000",ANALÂNDIA,"1989","2024",-22.12944444,-47.80166667,ANALÂNDIA,Itirapina,R. CORUMBATAÍ,Tietê/Jacaré,"13",Alto Jacaré-Guaçu,13_1,,SPÁguas,FLU,59,5° BPAmb,"5200","866498",FOI REGISTRADOR MECÂNICO,,ATIVO,,,,,,,,,,,,
"4D-024",,,SALTO GRANDE,"0","0",-22.07777778,-47.55416667,PIRASSUNUNGA,Pirassununga,CÓRR. SALTO GRANDE,Mogi-Guaçu,"9",Alto Mogi,9_1,,SPÁguas,FLU,11,5° BPAmb,"5200","8684722",SEM OBSERVADOR - NÃO HÁ CURVA,,,,,,,,,,,,,,
"4D-026",FCTH,"61885600",FOZ DO ORIÇANGA,"2006","2025",-22.28444444,-47.05027778,MOJI-GUAÇU,Mogi Guaçu,R. DO ORIÇANGA,Mogi-Guaçu,"9",Alto Mogi,9_1,,SPÁguas,FLU,509,5° BPAmb,"5100","8684781",,,ATIVO,,,,,,,,,,,,
"4D-027",,,JUSANTE DE CONCHAL,"0","0",-22.32333333,-47.20777778,CONCHAL,Conchal,RIB. DO FERRAZ,Mogi-Guaçu,"9",Alto Mogi,9_1,,SPÁguas,FLU,594,5° BPAmb,"5200","8684755",SEM OBSERVADOR -  HÁ CURVA,,,,,,,,,,,,,,
"4D-028",,,FOZ DO ARARAS,"0","0",-22.28,-47.26666667,ARARAS,Araras,R. DAS ARARAS,Mogi-Guaçu,"9",Alto Mogi,9_1,,SPÁguas,FLU,343,5° BPAmb,"5200","86847543",SEM OBSERVADOR - HÁ CURVA,,,,,,,,,,,,,,
"4D-029",IPT,,BAIRRO TAQUARI PONTES,"2006","2020",-22.09722222,-47.30583333,LEME,Pirassununga,R. MOJI-GUAÇU,Mogi-Guaçu,"9",Alto Mogi,9_1,,SPÁguas,FLU,5458,5° BPAmb,"5200","86847522",LOGGER (CAMPBELL) / TELEMETRIA CHIP CELULAR /  SIBH - SEM OBSERVADOR - CONTINUAM AS MEDIÇÕES DE VAZÃO - ESTAÇÃO MISTA D4-134,,PARALIZADO,,,,,,,,,,,,
"4D-030",,,FOZ DO RIBEIRÃO DO MEIO,"2006","2011",-22.09805556,-47.32388889,LEME,Leme,RIB. DO MEIO,Mogi-Guaçu,"9",Alto Mogi,9_1,,SPÁguas,FLU,253,5° BPAmb,"5200","86847522",SEM OBSERVADOR - CONTINUAM AS MEDIÇÕES DE VAZÃO,,,,,,,,,,,,,,
"4D-031",,,FOZ DO ITUPEVA,"0","0",-22.04888889,-47.30083333,PIRASSUNUNGA,Pirassununga,R. DA ITUPEVA,Mogi-Guaçu,"9",Alto Mogi,9_1,,SPÁguas,FLU,587,5° BPAmb,"5200","8684721",SEM OBSERVADOR - CONTINUAM AS MEDIÇÕES DE VAZÃO - HÁ CURVA,,,,,,,,,,,,,,
"4D-032",,,FOZ DO RIBEIRÃO DO ROQUE,"0","0",-22.02805556,-47.36444444,PIRASSUNUNGA,Pirassununga,RIB. DO ROQUE,Mogi-Guaçu,"9",Alto Mogi,9_1,,SPÁguas,FLU,499,5° BPAmb,"5200","868471",SEM OBSERVADOR - CONTINUAM AS MEDIÇÕES DE VAZÃO - HÁ CURVA,,,,,,,,,,,,,,
"4D-033",,,CAPTAÇÃO DE SUMARÉ,"0","0",-22.7625,-47.20944444,PAULÍNIA,Paulinia,R. ATIBAIA,Piracicaba/Capivari/Jundiai,"5",Rio Atibaia,5_1,,SPÁguas,FLU,2589,5° BPAmb,"5100","866641",LOGGER (FCTH) / TELEMETRIA CHIP CELULAR / SAISP - SEM OBSERVADOR - NÃO HÁ CURVA - (ESTAÇÃO MISTA D4-122) - DESATIVADA EM JUN/2019,,,,,,,,,,,,,,
"4D-034",,,CAPTAÇÃO DA PETROBRÁS,"2011","2019",-22.69388889,-47.145,PAULÍNIA,Paulinia,R. JAGUARI,Piracicaba/Capivari/Jundiai,"5",,5_3,,SPÁguas,FLU,3335,5° BPAmb,"5100","86667",LOGGER (FCTH) / TELEMETRIA CHIP CELULAR / SAISP - DE 2008 A 2011 E DE 2013 A 2017 S/ VAZÕES - (ESTAÇÃO MISTA D4-123) - ROUBADA EM JAN/2019,,,,,,,,,,,,,,
"4D-035",,,FOZ DO JACUTINGA,"2008","2019",-22.35444444,-47.72222222,RIO CLARO,Ipeuna,RIB. DO JACUTINGA,Piracicaba/Capivari/Jundiai,"5",Rio Corumbataí,5_5,,SPÁguas,FLU,29,5° BPAmb,"5200","8666263",LOGGER (SOLINST) de 2014 a 2018 Desativado - SEM OBSERVADOR,,,,,,,,,,,,,,
"4D-036",IPT,,GAIVAN,"0","0",-22.38027778,-47.85611111,IPEÚNA,Itirapina,CÓRR. GAIVAN,Piracicaba/Capivari/Jundiai,"5",Rio Corumbataí,5_5,,SPÁguas,FLU,2.4,5° BPAmb,"5200","8666263",LOGGER (SOLINST) ROUBADO 04/17- NÃO HÁ CURVA - VERTEDOR,,PARALIZADO,,,,,,,,,,,,
"4D-037",,,MONJOLO GRANDE - FOZ,"0","0",-22.39305556,-47.88027778,IPEÚNA,Itirapina,CÓRR. MONJOLO GRANDE,Piracicaba/Capivari/Jundiai,"5",Rio Corumbataí,5_5,,SPÁguas,FLU,29,5° BPAmb,"5200","8666263",LOGGER (SOLINST) - NÃO HÁ CURVA,,,,,,,,,,,,,,
"4D-038",IPT,,PROENÇA URBANO,"2016","2017",-22.88638889,-47.05083333,CAMPINAS,Campinas,CÓRREGO PROENÇA,Piracicaba/Capivari/Jundiai,"5",Rio Atibaia,5_1,,SPÁguas,FLU,11.7,5° BPAmb,"5100","866642",LOGGER (SOLINST) - SEM OBSERVADOR  - A 40M A JUSANTE DO POSTO D4-128,,PARALIZADO,,,,,,,,,,,,
"4D-039",FCTH,,VERTEDOR - DIABÁSIO,"0","0",-22.42222222,-47.56944444,SANTA GERTRUDES,Rio Claro,SNA2 R. CLARO,Piracicaba/Capivari/Jundiai,"5",Rio Corumbataí,5_5,,SPÁguas,FLU,4.25,5° BPAmb,"5200","8666291",LOGGER (SOLINST) - VERTEDOR - NÃO HÁ CURVA - SEM OBSERVADOR,,ATIVO,,,L,,,,,,,,,
"4D-040",FCTH,,VERTEDOR - CANA,"0","0",-22.4325,-47.58805556,SANTA GERTRUDES,Rio Claro,SNA3 R. CLARO,Piracicaba/Capivari/Jundiai,"5",Rio Corumbataí,5_5,,SPÁguas,FLU,0.7,5° BPAmb,"5200","8666291",LOGGER (SOLINST) - VERTEDOR - NÃO HÁ CURVA - SEM OBSERVADOR,,ATIVO,,,L,T,,,,,,,,
"4D-041",FCTH,,ANHUMAS FOZ,"2019","2025",-22.76972222,-47.11138889,CAMPINAS,Paulinia,RIB. DAS ANHUMAS,Piracicaba/Capivari/Jundiai,"5",Rio Atibaia,5_1,,SPÁguas,FLU,148,5° BPAmb,"5100","866642",LOGGER (FCTH) / TELEMETRIA CHIP CELULAR / SAISP - SEM OBSERVADOR - (ESTAÇÃO MISTA D4-132),,ATIVO,,,L,T,,,,,,,,
"4D-042",FCTH,,NOVO BATOVI,"2015","2025",-22.43027778,-47.70805556,RIO CLARO,Ipeuna,R. CORUMBATAÍ,Piracicaba/Capivari/Jundiai,"5",Rio Corumbataí,5_5,,SPÁguas,FLU,527,5° BPAmb,"5200","8666263",LOGGER (FCTH) / TELEMETRIA CHIP CELULAR / SAISP - SEM OBSERVADOR - ESTAÇÃO MISTA D4-131,,ATIVO,,,L,T,,,,,,,,
"4D-043",FCTH,,AIMARATÁ,"2017","2025",-22.69138889,-47.46055556,AMERICANA,Limeira,R. PIRACICABA,Piracicaba/Capivari/Jundiai,"5",,5_4,,SPÁguas,FLU,7939,5° BPAmb,"5200","8666337",LOGGER (FCTH) / TELEMETRIA CHIP CELULAR / SAISP - EM SUBSTITUIÇÃO AO 4D-010 - (ESTAÇÃO MISTA D4-135),,ATIVO,,,L,T,Q,,,,,,,
"4D-044",FCTH,,RODOVIA PROFESSOR ZEFERINO VAZ (DEVERÁ SER REALOCADO),"0","0",-22.69361111,-47.17638889,PAULÍNIA,Cosmopolis,R. JAGUARI,Piracicaba/Capivari/Jundiai,"5",,5_3,,SPÁguas,FLU,,5° BPAmb,"5200","86667",LOGGER (FCTH) / TELEMETRIA CHIP CELULAR / SAISP - SEM OBSERVADOR -  (ESTAÇÃO MISTA D4-136),,ATIVO,,O,,,,,,,,,,
"4D-045",FCTH,,SUMARÉ,"0","0",-22.81888889,-47.235,SUMARÉ,Sumare,RIB. DO QUILOMBO,Piracicaba/Capivari/Jundiai,"5",,5_4,,SPÁguas,FLU,,5° BPAmb,"5200","8666383",LOGGER (FCTH) / TELEMETRIA  CHIP CELULAR / SAISP - SEM OBSERVADOR - ESTAÇÃO MISTA D4-137,,ATIVO,,O,,,,,,,,,,
"4D-046",FCTH,,AMERICANA,"0","0",-22.73472222,-47.39111111,AMERICANA,Santa Barbara dOeste,RIB. QUILOMBO,Piracicaba/Capivari/Jundiai,"5",,5_4,,SPÁguas,FLU,,5° BPAmb,"5200","8666341",LOGGER (FCTH) / TELEMETRIA  CHIP CELULAR / SAISP - (ESTAÇÃO MISTA D4-138),,ATIVO,,O,,,,,,,,,,
"4D-047",FCTH,,SANTA BARBARA D'OESTE,"0","0",-22.73555556,-47.57638889,SANTA BÁRBARA D'OESTE,Piracicaba,R. PIRACICABA,Piracicaba/Capivari/Jundiai,"5",,5_4,,SPÁguas,FLU,,5° BPAmb,"5200","8666331",LOGGER (FCTH) / TELEMETRIA  CHIP CELULAR / SAISP - SEM OBSERVADOR - ESTAÇÃO MISTA D4-139,,ATIVO,,O,,,,,,,,,,
"4D-048",FCTH,,RIO CLARO,"0","0",-22.29472222,-47.68361111,RIO CLARO,Corumbatai,R. CORUMBATAÍ,Piracicaba/Capivari/Jundiai,"5",Rio Corumbataí,5_5,,SPÁguas,FLU,,5° BPAmb,"5200","8666262",LOGGER (FCTH) / TELEMETRIA  CHIP CELULAR / SAISP - SEM OBSERVADOR - ESTAÇÃO MISTA D4-140,,ATIVO,,O,,,,,,,,,,
"4D-049",FCTH,,CAPTAÇÃO SEMAE PIRACICABA,"0","0",-22.63277778,-47.81083333,PIRACICABA,São Pedro,R. CORUMBATAÍ,Piracicaba/Capivari/Jundiai,"5",,5_6,,SPÁguas,FLU,,5° BPAmb,"5200","8666191",LOGGER (FCTH) / TELEMETRIA SATÉLITE / SAISP - (ESTAÇÃO MISTA D4-141),,ATIVO,,O,,,,,,,,,,
"4D-050",FCTH,,SABESP MONTE MOR,"0","0",-22.95472222,-47.38472222,MONTE MOR,Monte Mor,R. CAPIVARI,Piracicaba/Capivari/Jundiai,"5",,5_8,,SPÁguas,FLU,,5° BPAmb,"5200","866925",LOGGER (FCTH) / TELEMETRIA  CHIP CELULAR / SAISP - (ESTAÇÃO MISTA D4-142),,ATIVO,,O,,,,,,,,,,
"4D-051",FCTH,,MONTE MOR,"0","0",-22.96861111,-47.34527778,MONTE MOR,Monte Mor,R. CAPIVARI - MIRIM,Piracicaba/Capivari/Jundiai,"5",,5_8,,SPÁguas,FLU,,5° BPAmb,"5200","866925",LOGGER (FCTH) / TELEMETRIA  CHIP CELULAR / SAISP - (ESTAÇÃO MISTA D4-143),,ATIVO,,O,,,,,,,,,,
4D-500Z,FCTH,,PÉ DE GIGANTE 3,"2009","2025",-22.13277778,-47.82611111,ANALÂNDIA,São Carlos,R. CORUMBATAÍ,Tietê/Jacaré,"13",Alto Jacaré-Guaçu,13_1,,SPÁguas,PIEZO,,4° BPAmb,"4400","866498",LOGGER (SOLINST) - LEITURAS DE OBSERVADOR NÃO DIÁRIAS,,ATIVO,,C,L,,,,,,,,Guarani,679.438
4D-501Z,FCTH,,ESTÂNCIA RODRIGUES,"2018","2025",-22.72388889,-47.90638889,PIRACICABA,Piracicaba,RIB. GRANAL,Piracicaba/Capivari/Jundiai,"5",,5_6,,SPÁguas,PIEZO,,5° BPAmb,"5200","8666176",LOGGER (SOLINST) - SEM OBSERVADOR (AS LEITURAS GRAVADAS SÃO RETIRADAS DAS INSPEÇÕES),,ATIVO,,C,L,,,,,,,,Guarani,521.822
4D-502Z,FCTH,,SOTERO,"2019","2025",-22.37194444,-47.86055556,IPEÚNA,Itirapina,CÓRR. MONJOLO GRANDE,Piracicaba/Capivari/Jundiai,"5",Rio Corumbataí,5_5,,SPÁguas,PIEZO,,5° BPAmb,"5200","8666263",LOGGER (SOLINST) - SEM OBSERVADOR (AS LEITURAS GRAVADAS SÃO RETIRADAS DAS INSPEÇÕES),,ATIVO,,C,L,,,,,,,,Guarani,659.322
4D-503Z,FCTH,,SÍTIO SÃO SEBASTIÃO,"2022","2024",-22.32722222,-47.76361111,CORUMBATAÍ,Itirapina,R. CORUMBATAÍ,Piracicaba/Capivari/Jundiai,"5",Rio Corumbataí,5_5,,SPÁguas,PIEZO,,5° BPAmb,"5200","8666262",LOGGER (SOLINST) - SEM OBSERVADOR (AS LEITURAS GRAVADAS SÃO RETIRADAS DAS INSPEÇÕES)-checar boca do poço,,ATIVO,,C,L,,,,,,,,Aqüiclude Passa Dois,583
4D-504Z,FCTH,,FAZENDA SANTA INÊS,"2022","2025",-22.24916667,-47.99111111,ITIRAPINA,Brotas,RIB. ITAQUERI,Tietê/Jacaré,"13",Alto Jacaré-Pepira,13_4,,SPÁguas,PIEZO,,5° BPAmb,"5200","866528",LOGGER (SOLINST) - SEM OBSERVADOR (AS LEITURAS GRAVADAS SÃO RETIRADAS DAS INSPEÇÕES)-checar boca do poço,,ATIVO,,C,L,,,,,,,,Guarani,767
"4E-001",FCTH,,ENTRE RIOS,"1943","2025",-23.02694444,-47.98388889,LARANJAL PAULISTA,Conchas,R. SOROCABA,Tietê/ Sorocaba,"10",Médio Tietê Inferior,10_5,,SPÁguas,FLU,5531,5° BPAmb,"5300","86678",LOGGER (FCTH) - DE 1979 A 2005 S/ VAZÕES - (ESTAÇÃO MISTA E4-141),,ATIVO,,,,,,,,,,,,
"4E-004",FCTH,,AMERICANA VELHA,"1960","2015",-23.31944444,-47.9325,TATUÍ,Tatui,R. SOROCABA,Tietê/ Sorocaba,"10",Baixo Sorocaba,10_3,,SPÁguas,FLU,3942,5° BPAmb,"5300","866822",LOGGER DESLIGADO / FOI REGISTRADOR MECÂNICO - DE 2009 A 2015 S/ VAZÕES - SEM OBSERVADOR - CONTINUAM AS MEDIÇÕES DE VAZÃO,,ATIVO,,,,,,,,,,,,
"4E-006",FCTH,,BAIRRO SARAPÚ,"1966","2024",-23.39944444,-47.9075,TATUÍ,Tatui,R. SARAPUÍ,Tietê/ Sorocaba,"10",Baixo Sorocaba,10_3,,SPÁguas,FLU,1542,5° BPAmb,"5300","866843",LOGGER (FCTH) - ESTAÇÃO MISTA E4-026,,ATIVO,,,,,,,,,,,,
"4E-009",FCTH,,COND. TERRAS DE SÃO JOSÉ,"2018","2025",-23.29888889,-47.34916667,ITU,Itu,RIB. PIRAPITINGUI,Tietê/ Sorocaba,"10",Médio Tietê Superior,10_4,,SPÁguas,FLU,74.1,5° BPAmb,"5300","866936",LOGGER (SOLINST) - SEM OBSERVADOR,,ATIVO,,,,,,,,,,,,
"4E-010",FCTH,,CERÂMICA BANDEIRANTES,"0","0",-23.29166667,-47.42277778,ITU,Porto Feliz,R. ITAIM-GUAÇU,Tietê/ Sorocaba,"10",Médio Tietê Superior,10_4,,SPÁguas,FLU,56.3,5° BPAmb,"5300","8669352",LOGGER (SOLINST) - SEM OBSERVADOR - NÃO HÁ CURVA (SEÇÃO COM ALTO GRAU DE INSTABILIDADE),,ATIVO,,,,,,,,,,,,
"4E-011",,,BAIRRO CURURU,"2005","2009",-23.27277778,-47.04861111,CABREÚVA *(SMT),Cabreuva,RIB. PIRAÍ,Piracicaba/Capivari/Jundiai,"5",Rio Jundiaí,5_7,,SPÁguas,FLU,37,5° BPAmb,"5100","8669423",LOGGER (SOLINST),,,,,,,,,,,,,,
"4E-012",,,CERÂMICA TIJOLAR,"2005","2007",-23.25611111,-47.20916667,CABREÚVA *(SMT),Itu,RIB. PIRAÍ,Tietê/ Sorocaba,"10",Médio Tietê Superior,10_4,,SPÁguas,FLU,113,5° BPAmb,"5300","8669423",LOGGER (SOLINST),,,,,,,,,,,,,,
"4E-013",,,FAZENDA PEDRA BRANCA,"2005","2005",-23.19944444,-47.2725,SALTO,Salto,R. PIRAÍ,Piracicaba/Capivari/Jundiai,"5",Rio Jundiaí,5_7,,SPÁguas,FLU,1141,5° BPAmb,"5300","866941",LOGGER (SOLINST),,,,,,,,,,,,,,
"4E-015",,,JUQUITIBA,"1971","1987",-23.93333333,-47.1,JUQUITIBA,Juquitiba,R. JUQUIÁ,Ribeira de Iguape / Litoral Sul,"11",Alto Juquiá,11_2,,SPÁguas,FLU,236,1° BPAmb,"1200","7794497",,,,,,,,,,,,,,,
"4E-016",,,FAZENDA ZILIA,"1972","1975",-23.35,-47.96,TATUÍ,Tatui,R. TATUÍ,Tietê/ Sorocaba,"10",Baixo Sorocaba,10_3,,SPÁguas,FLU,316,5° BPAmb,"5300","866842",,,,,,,,,,,,,,,
"4E-017",FCTH,,ITAICI,"1972","2025",-23.10722222,-47.21277778,INDAIATUBA,Indaiatuba,R. JUNDIAÍ,Piracicaba/Capivari/Jundiai,"5",Rio Jundiaí,5_7,,SPÁguas,FLU,803,5° BPAmb,"5100","866943",LOGGER (FCTH) / TELEMETRIA CHIP CELULAR / SAISP - DE 1995 A 2012 SEM VAZÕES - (ESTAÇÃO MISTA E4-864AN),,ATIVO,,,,,,,,,,,,
"4E-018",FCTH,,RAPOSO TAVARES,"1978","2015",-23.52305556,-47.54027778,SOROCABA,Sorocaba,R. SOROCABA,Tietê/ Sorocaba,"10",Sorocaba / Pirajibu,10_2,,SPÁguas,FLU,1044,5° BPAmb,"5300","866872",LOGGER ROUBADO - DE 2013 A 2014 S/ VAZÕES - SEM OBSERVADOR  A PARTIR DE 2015 - REINSTALADO EM 2019 EM NOVO LOCAL - HÁ CURVA PARA 2019  A 2021 - CONTINUA SEM OBSERVADOR,,ATIVO,,,,,,,,,,,,
"4E-019",FCTH,,CORUMBÁ,"1978","2024",-23.36444444,-47.73611111,IPERÓ,Tatui,R. SOROCABA,Tietê/ Sorocaba,"10",Baixo Sorocaba,10_3,,SPÁguas,FLU,2018,5° BPAmb,"5300","866861",LOGGER (SOLINST),,ATIVO,,,,,,,,,,,,
"4E-020",,,ADUTORA,"1979","1981",-23.2,-47.32,SALTO,Salto,R. JUNDIAÍ,Tietê/ Sorocaba,"10",Médio Tietê Superior,10_4,,SPÁguas,FLU,1119,5° BPAmb,"5300","866939",,,,,,,,,,,,,,,
"4E-021",,,VOTORANTIM,"1978","1983",-23.53333333,-47.52,VOTORANTIM,Sorocaba,R. SOROCABA,Tietê/ Sorocaba,"10",Sorocaba / Pirajibu,10_2,,SPÁguas,FLU,1032,5° BPAmb,"5300","866872",REGISTRADOR MECÂNICO,,,,,,,,,,,,,,
"4E-022",,,PAIOL PEQUENO,"1980","2000",-23.61666667,-47.22,IBIUNA,Mairinque,R. SOROCAMIRIM,Tietê/ Sorocaba,"10",Alto Sorocaba,10_1,,SPÁguas,FLU,324,5° BPAmb,"5300","866893",,,,,,,,,,,,,,,
"4E-023",,,FAZENDA ITAPEVA,"1980","1996",-23.0175,-47.69027778,RAFARD,Tiete,R. CAPIVARI,Piracicaba/Capivari/Jundiai,"5",,5_8,,SPÁguas,FLU,1302,5° BPAmb,"5300","8669211",,,,,,,,,,,,,,,
"4E-025",FCTH,,ROSAS,"1980","2023",-23.98333333,-47.00861111,JUQUITIBA,Juquitiba,R. JUQUIÁ,Ribeira de Iguape / Litoral Sul,"11",Alto Juquiá,11_2,,SPÁguas,FLU,130,1° BPAmb,"1200","77944993",REGISTRADOR MECÂNICO - DE 2001 A 2008 S/ VAZÕES,,ATIVO,,,,,,,,,,,,
"4E-026",,,CARMOS,"1981","1996",-23.93333333,-47.1,JUQUITIBA,Juquitiba,R. JUQUIÁ,Ribeira de Iguape / Litoral Sul,"11",Alto Juquiá,11_2,,SPÁguas,FLU,500,1° BPAmb,"1200","7794497",,,,,,,,,,,,,,,
"4E-027",FCTH,,REFORMA AGRÁRIA,"2019","2025",-23.01638889,-47.09055556,CAMPINAS,Campinas,R. CAPIVARI,Piracicaba/Capivari/Jundiai,"5",,5_8,,SPÁguas,FLU,226,5° BPAmb,"5100","866929",SEM OBSERVADOR - (ESTAÇÃO MISTA E4-063),,ATIVO,,,,,,,,,,,,
"4E-028",IPT,,SÃO BARTOLOMEU,"2018","2022",-23.70666667,-47.50722222,PIEDADE,Piedade,R. PIRAPORA,Tietê/ Sorocaba,"10",Baixo Sorocaba,10_3,,SPÁguas,FLU,138,5° BPAmb,"5300","8668691",SEM OBSERVADOR DESDE DEZ 2023,,PARALIZADO,,,,,,,,,,,,
"4E-029",FCTH,,SITIO DOS COQUEIROS,"2018","2024",-23.69638889,-47.28694444,IBIUNA,Ibiuna,R. DO UNA,Tietê/ Sorocaba,"10",Alto Sorocaba,10_1,,SPÁguas,FLU,77,5° BPAmb,"5300","866892",LOGGER ATIVA DESDE 2023 MAS NADA GRAVADO - ESTAÇÃO MISTA E4-097,,ATIVO,,,,,,,,,,,,
"4E-031",FCTH,,PONTE PINGA PINGA,"0","0",-23.47638889,-47.52861111,SOROCABA,Sorocaba,R. SOROCABA,Tietê/ Sorocaba,"10",Sorocaba / Pirajibu,10_2,,SPÁguas,FLU,1089,5° BPAmb,"5300","866873",SEM OBSERVADOR,,ATIVO,,,,,,,,,,,,
"4E-032",FCTH,,TATUÍ  ( SMT_5 ),,,-23.377111,-47.868028,Tatui,Tatui,,,"10",Baixo Sorocaba,10_3,,SPÁguas,FLU,,5° BPAmb,"5300","866841",,,ATIVO,,,,,,,,,,,,
"4E-033",IPT,,GUARAPÓ,"0","0",-23.26083333,-48.04722222,TATUI,Quadra,RIB. GUARAPÓ,Tietê/ Sorocaba,"10",Baixo Sorocaba,10_3,,SPÁguas,FLU,169,5° BPAmb,"5300","866823",SEM OBSERVADOR,,PARALIZADO,,,,,,,,,,,,
"4E-034",FCTH,,CAPTAÇÃO DAE SALTO,"0","0",-23.19055556,-47.28083333,SALTO,Salto,R. PIRAÍ,Tietê/ Sorocaba,"10",Médio Tietê Superior,10_4,,SPÁguas,FLU,,5° BPAmb,"5300","866939",LOGGER (FCTH) / TELEMETRIA  CHIP CELULAR / SAISP - SEM OBSERVADOR - ESTAÇÃO MISTA E4-142,,ATIVO,,,,,,,,,,,,
"4E-035",FCTH,,SALTO,"0","0",-23.19527778,-47.32194444,SALTO,Salto,R. JUNDIAÍ,Tietê/ Sorocaba,"10",Médio Tietê Superior,10_4,,SPÁguas,FLU,,5° BPAmb,"5300","866939",LOGGER (FCTH) / TELEMETRIA  CHIP CELULAR / SAISP - SEM OBSERVADOR - ESTAÇÃO MISTA E4-143,,ATIVO,,,,,,,,,,,,
"4E-036",IPT,"62478000",EDEN PIRAJIBU,"0","0",,,SOROCABA,,R PIRAJIBU MIRIM,Tietê/ Sorocaba,"10",,,,SPÁguas,FLU,,,,,LOGGER /TELEMÉTRICA,,PARALIZADO,,,,,,,,,,,,
4F-001,,,BARRA DO CAPINZAL,"1941","1971",-24.6,-48.06,REGISTRO,Jacupiranga,R. JACUPIRANGA,Ribeira de Iguape / Litoral Sul,"11",Rio Ribeira de Iguape,11_5,,SPÁguas,FLU,1317,3° BPAmb,"3200","7794232",,,,,,,,,,,,,,,
4F-002,FCTH,"81683000",REGISTRO,"1953","2024",-24.48944444,-48.00277778,REGISTRO,Sete Barras,R. RIBEIRA DO IGUAPE,Ribeira de Iguape / Litoral Sul,"11",Alto Juquiá,11_2,,SPÁguas,FLU,20855,3° BPAmb,"3200","7794533",LOGGER (FCTH) / TELEMETRIA CHIP CELULAR - FOI REGISTRADOR MECÂNICO - DE 2000 A 2003 E DE 2006 A 2010 S/ VAZÕES - (ESTAÇÃO MISTA F4-005),,ATIVO,,O,L,T,Q,,,,,,,
4F-003,IPT,,BARRA DO AÇUNGUI,"1959","2000",-24.18444444,-47.74444444,JÚQUIA,Juquia,R. JUQUIÁ,Ribeira de Iguape / Litoral Sul,"11",Alto Juquiá,11_2,,SPÁguas,FLU,2443,3° BPAmb,"3200","7794452",,,PARALIZADO,,,,,,,,,,,,
4F-004,,,JURUMIRIM,"1953","1971",-24.5,-47.88,REGISTRO,Registro,R. RIBEIRA DO IGUAPE,Ribeira de Iguape / Litoral Sul,"11",Rio Ribeira de Iguape,11_5,,SPÁguas,FLU,21055,3° BPAmb,"3200","779435",,,,,,,,,,,,,,,
4F-005,,,BAIRRO IPORANGA,"1959","2000",-24.1,-47.8,JUQUIÁ,Tapirai,R. AÇUNGUI,Ribeira de Iguape / Litoral Sul,"11",Alto Juquiá,11_2,,SPÁguas,FLU,410,5° BPAmb,"5300","7794484",SEM OBSERVADOR,,,,,,,,,,,,,,
4F-007,,,SÍTIO JABORANDI,"1961","2001",-24.3,-47.68,JUQUIÁ,Juquia,R. SÃO LOURENÇO,Ribeira de Iguape / Litoral Sul,"11",Alto Juquiá,11_2,,SPÁguas,FLU,1713,3° BPAmb,"3200","7794453",,,,,,,,,,,,,,,
4F-010,,,BAIRRO IGREJINHA,"1955","1971",-24.31666667,-47.22,ITARIRI,Pedro de Toledo,RIB. DAS PEDRAS,Ribeira de Iguape / Litoral Sul,"11",Rio Itariri,11_1,,SPÁguas,FLU,22,3° BPAmb,"3100","77944662",,,,,,,,,,,,,,,
4F-014,FCTH,"81585000",GUANHANHA,"1959","2022",-24.26694444,-47.19527778,ITARIRI,Itariri,RIB. GUANHANHÃ,Ribeira de Iguape / Litoral Sul,"11",Rio Itariri,11_1,,SPÁguas,FLU,91,3° BPAmb,"3100","77944665",,,ATIVO,,O,,,,,,,,,,
4F-015,FCTH,"81420000",SETE BARRAS,"1961","2024",-24.3925,-48.11194444,SETE BARRAS,Eldorado,R. RIBEIRA DO IGUAPE,Ribeira de Iguape / Litoral Sul,"11",Alto Juquiá,11_2,,SPÁguas,FLU,15292,3° BPAmb,"3200","7794522",LOGGER (FCTH) / TELEMETRIA CHIP CELULAR - (ESTAÇÃO MISTA F4-015),,ATIVO,,,L,T,Q,,,,,,,
4F-016,FCTH,"81790000",INGATUBA,"1963","2024",-24.59361111,-48.05194444,REGISTRO,Jacupiranga,R. JACUPIRANGA,Ribeira de Iguape / Litoral Sul,"11",Rio Ribeira de Iguape,11_5,,SPÁguas,FLU,1325,3° BPAmb,"3200","7794232",LOGGER PARALISADO,,ATIVO,,O,,,,,,,,,,
4F-017,,,PEDRA DO LARGO,"1963","1994",-24.13333333,-47.34,MIRACATU,Miracatu,R. SÃO LOURENCINHO,Ribeira de Iguape / Litoral Sul,"11",Rio Itariri,11_1,,SPÁguas,FLU,556,3° BPAmb,"3200","7794467",,,,,,,,,,,,,,,
4F-018,FCTH,"64105800",JUQUIÁ,"1969","2024",-24.32638889,-47.74666667,JUQUIÁ,Juquia,R. JUQUIÁ,Ribeira de Iguape / Litoral Sul,"11",Alto Juquiá,11_2,,SPÁguas,FLU,4341,3° BPAmb,"3200","7794452",LOGGER (VAISALA) / TELEMETRIA SATELITE - LOGGER (FCTH) / TELEMETRIA CHIP CELULAR - OPERAÇÃO CONJUNTA - FOI REGISTRADOR MECÂNICO -( ESTAÇÃO MISTA F4-020),,ATIVO,,,L,T,Q,,,,,,,
4F-021,IPT,,PORTO DA GOIABA,"1971","2018",-24.29805556,-47.7325,JUQUIÁ,Juquia,R. JUQUIÁ,Ribeira de Iguape / Litoral Sul,"11",Alto Juquiá,11_2,,SPÁguas,FLU,2571,3° BPAmb,"3200","7794452",SEM OBSERVADOR,,PARALIZADO,,,,,,,,,,,,
4F-022,,,SITIO BELIZÁRIO,"1971","1981",-24.35,-47.94,JUQUIÁ,Sete Barras,R. JUQUIÁ,Ribeira de Iguape / Litoral Sul,"11",Alto Juquiá,11_2,,SPÁguas,FLU,4633,3° BPAmb,"3200","779451",REGISTRADOR MECÂNICO,,,,,,,,,,,,,,
4F-023,,,FAZENDA OURO VERDE,"1971","1998",-24.65,-48.04,PARIQUERA-AÇU,Jacupiranga,R. PARIQUERA-AÇU,Ribeira de Iguape / Litoral Sul,"11",Rio Ribeira de Iguape,11_5,,SPÁguas,FLU,110,3° BPAmb,"3200","779424",,,,,,,,,,,,,,,
4F-024,FCTH,"81615000",FAÚ,"1971","2022",-24.20805556,-47.57083333,MIRACATU,Juquia,R. DO FAÚ,Ribeira de Iguape / Litoral Sul,"11",Alto Juquiá,11_2,,SPÁguas,FLU,66,3° BPAmb,"3200","779447",,,ATIVO,,O,,,,,,,,,,
4F-025,FCTH,"81519000",CAPELA DO PORTO,"1972","2022",-24.17222222,-47.78277778,JUQUIÁ,Sete Barras,R. AÇUNGUI,Ribeira de Iguape / Litoral Sul,"11",Alto Juquiá,11_2,,SPÁguas,FLU,634,3° BPAmb,"3200","7794443",,,ATIVO,,O,,,,,,,,,,
4F-026,FCTH,"2250097",PRAIA ALTA,"1971","2022",-24.24611111,-47.31055556,PEDRO DE TOLEDO,Miracatu,R. ITARIRI,Ribeira de Iguape / Litoral Sul,"11",Rio Itariri,11_1,,SPÁguas,FLU,356,3° BPAmb,"3200","77944661",LOGGER (VAISALA) / TELEMETRIA SATELITE - DE 1998 A 2000 S/ VAZÕES - (ESTAÇÃO MISTA F4-055),,ATIVO,,O,L,T,,,,,,,,
4F-027,,,VILA SÃO JOSÉ,"1971","1979",-24.31666667,-47.6,MIRACATU,Juquia,R. DO BANANAL,Ribeira de Iguape / Litoral Sul,"11",Alto Juquiá,11_2,,SPÁguas,FLU,127,3° BPAmb,"3200","779447",,,,,,,,,,,,,,,
4F-028,,,ABAIXO RIO AÇUNGUI,"1972","1979",-24.2,-47.72,JUQUIÁ,Juquia,R. JUQUIÁ,Ribeira de Iguape / Litoral Sul,"11",Alto Juquiá,11_2,,SPÁguas,FLU,2468,3° BPAmb,"3200","7794452",,,,,,,,,,,,,,,
4F-031,,,BARRANCO ALTO,"1973","1976",-24.36666667,-48,REGISTRO,Sete Barras,R. JUQUIÁ,Ribeira de Iguape / Litoral Sul,"11",Alto Juquiá,11_2,,SPÁguas,FLU,5390,3° BPAmb,"3200","7794523",,,,,,,,,,,,,,,
4F-035,,,BRAÇO GRANDE,"1979","1999",-24.1375,-47.32527778,PEDRO DE TOLEDO,Miracatu,RIB. DO BRAÇO GRANDE,Ribeira de Iguape / Litoral Sul,"11",Rio Itariri,11_1,,SPÁguas,FLU,142,3° BPAmb,"3200","7794467",,,,,,,,,,,,,,,
4F-036,,,FUNDO,"1980","1998",-24.30027778,-47.88472222,JUQUIÁ,Sete Barras,RIB. FUNDO,Ribeira de Iguape / Litoral Sul,"11",Alto Juquiá,11_2,,SPÁguas,FLU,145,3° BPAmb,"3200","7794442",REGISTRADOR MECÂNICO,,,,,,,,,,,,,,
4F-037,,,PORTO DA ESTRADA,"1981","1999",-24.31583333,-48.02361111,SETE BARRAS,Sete Barras,R. IPIRANGA,Ribeira de Iguape / Litoral Sul,"11",Alto Juquiá,11_2,,SPÁguas,FLU,380,3° BPAmb,"3200","7794524",REGISTRADOR MECÂNICO,,,,,,,,,,,,,,
4F-038,,,QUILOMBO,"1981","1998",-24.32833333,-48.10416667,SETE BARRAS,Eldorado,R. QUILOMBO,Ribeira de Iguape / Litoral Sul,"11",Alto Juquiá,11_2,,SPÁguas,FLU,270,3° BPAmb,"3200","7794525",REGISTRADOR MECÂNICO,,,,,,,,,,,,,,
4F-039,,,ABAIXO FAÚ,"1981","1997",-24.25,-47.54,MIRACATU,Miracatu,R. SÃO LOURENÇO,Ribeira de Iguape / Litoral Sul,"11",Rio Itariri,11_1,,SPÁguas,FLU,1426,3° BPAmb,"3200","77944632",,,,,,,,,,,,,,,
4F-040,FCTH,"81598000",ENGENHO,"1981","2022",-24.18027778,-47.445,MIRACATU,Miracatu,R. SÃO LOURENCINHO,Ribeira de Iguape / Litoral Sul,"11",Rio Itariri,11_1,,SPÁguas,FLU,683,3° BPAmb,"3200","7794464",,,ATIVO,,O,,,,,,,,,,
4F-041,IPT,,BARRAGEM DO VALO GRANDE - MONTANTE,"0","0",-24.69416667,-47.68277778,IGUAPE,Iguape,R. RIBEIRA DO IGUAPE,Ribeira de Iguape / Litoral Sul,"11",Rio Ribeira de Iguape,11_5,,SPÁguas,FLU,23608,3° BPAmb,"3200","7794152",LOGGER (CAMPBELL) / TELEMETRIA CHIP CELULAR - APARELHO NÃO CADASTRADO - SEM OBSERVADOR - ESTAÇÃO MISTA F4-060,,PARALIZADO,,,,,,,,,,,,
4F-042,FCTH,"81630000",MIRACATU,"0","0",-24.28111111,-47.55055556,MIRACATU,Miracatu,R. SÃO LOURENÇO,Ribeira de Iguape / Litoral Sul,"11",Rio Itariri,11_1,,SPÁguas,FLU,1480,3° BPAmb,"3200","7794461",LOGGER (VAISALA) / TELEMETRIA SATELITE - ESTAÇÃO MISTA F4-062,,ATIVO,,,L,T,,,,,,,,
4F-043,IPT,,PEROPAVA,"0","0",-24.57083333,-47.74777778,IGUAPE,Registro,R. PEROPAVA,Ribeira de Iguape / Litoral Sul,"11",Rio Ribeira de Iguape,11_5,,SPÁguas,FLU,53,3° BPAmb,"3200","7794212",LOGGER (VAISALA) / TELEMETRIA SATELITE - SEM OBSERVADOR -  ESTAÇÃO MISTA F4-063,,PARALIZADO,,,,,,,,,,,,
4F-044,FCTH,,JACUPIRANGA JUSANTE,"0","0",-24.62888889,-47.88166667,PARIQUERA-AÇU,Pariquera-Acu,R. RIBEIRA DO IGUAPE,Ribeira de Iguape / Litoral Sul,"11",Rio Ribeira de Iguape,11_5,,SPÁguas,FLU,,3° BPAmb,"3200","779418",LOGGER (FCTH) / TELEMETRIA CHIP CELULAR - ESTAÇÃO MISTA F4-064,,ATIVO,,,,,,,,,,,,
5B-001,,"61925010",PONTE JOAQUIM JUSTINO,"1958","2025",-20.45388889,-48.54083333,GUAÍRA  *(SMG),Barretos,R. PARDO,Baixo Pardo/ Grande,"12",Córrego Água Limpa,12_2,,SPÁguas,FLU,33740,4° BPAmb,"4300","86841372",FOI REGISTRADOR MECÂNICO,,ATIVO,,,,,Q,,,,,,,
5B-004,FCTH,"61960000",SÃO BENEDITO,"1964","2024",-20.85611111,-49.16555556,OLÍMPIA,Cedral,R. TURVO,Turvo/Grande,"15",Médio Turvo,15_5,,SPÁguas,FLU,2068,4° BPAmb,"4100","868256",LOGGER (VAISALA) / TELEMETRIA SATÉLITE - (ESTAÇÃO MISTA B5-075) - DE 1999 A 2001 E DE 2002 A 2014 S/ VAZÕES,,ATIVO,,,,,,,,,,,,
5B-007,,,FAZENDA SÃO DOMINGOS,"1969","2002",-20.2,-48.34,GUAÍRA,Guaira,R. SAPUCAÍ-MIRIM,Sapucaí/Grande,"8",Sapucaí,8_1,,SPÁguas,FLU,6281,4° BPAmb,"4300","868612",FOI REGISTRADOR MECÂNICO - SEM OBSERVADOR DESDE JAN/2003 MAS MEDQ CONTINUARAM ATÉ 2024,,,,,,,,,,,,,,
5B-008,,,PONTE OLIMPIA/BARRETOS,"1969","1976",-20.68333333,-49.08,OLÍMPIA,Olimpia,R. DA CACHOEIRINHA,Turvo/Grande,"15",Médio Turvo,15_5,,SPÁguas,FLU,562,4° BPAmb,"4300","868251",,,,,,,,,,,,,,,
5B-010,FCTH,,PARAÍSO / MONTE AZUL PAULISTA,"1971","2021",-20.99222222,-48.84805556,PARAÍSO,Embauba,R. TURVO,Turvo/Grande,"15",Ribeirão da Onça,15_1,,SPÁguas,FLU,578,4° BPAmb,"4100","868283",LOGGER (VAISALA) / TELEMETRIA SATÉLITE - (ESTAÇÃO MISTA B5-068) - SEM OBSERVADOR,,ATIVO,,,,,,,,,,,,
5B-011,,"61854900",FAZENDA BELA VISTA,"1973","2024",-20.90916667,-48.10444444,PONTAL  *(MOGI),Pontal,R. PARDO,Pardo,"4",Baixo Pardo,4_6,,SPÁguas,FLU,12445,4° BPAmb,"4400","86842131",,,ATIVO,,,,,,,,,,,,
5B-012,,,MORRO AGUDO,"1980","1999",-20.73722222,-48.06305556,MORRO AGUDO,Morro Agudo,RIB. DO AGUDO,Baixo Pardo/ Grande,"12",Ribeirão Indaía,12_1,,SPÁguas,FLU,263,4° BPAmb,"4300","868418",,,,,,,,,,,,,,,
5B-013,FCTH,,VIRADOURO,"1980","2009",-20.88388889,-48.32444444,VIRADOURO,Viradouro,RIB. SUCURI,Baixo Pardo/ Grande,"12",Ribeirão Indaía,12_1,,SPÁguas,FLU,143,4° BPAmb,"4300","8684192",SEM OBSERVADOR - FOI REGISTRADOR MECÂNICO - DE 1998 A 1999 E DE 2001 A 2005 S/ VAZÕES - CONTINUARAM AS MEDIÇÕES DE VAZÃO,,ATIVO,,,,,,,,,,,,
5B-014,,,VERA PAZ,"1980","1996",-20.75194444,-48.5225,JABORANDI,Colina,RIB. DAS PALMEIRAS,Baixo Pardo/ Grande,"12",Ribeirão Indaía,12_1,,SPÁguas,FLU,687,4° BPAmb,"4300","8684161",SEM OBSERVADOR - FOI REGISTRADOR MECÂNICO,,,,,,,,,,,,,,
5B-015,,,FAZENDA CONTINENTAL,"0","0",-20.24305556,-48.80166667,COLÔMBIA,Colombia,R. VELHO,Baixo Pardo/ Grande,"12",Ribeirão Santana,12_3,,SPÁguas,FLU,406,4° BPAmb,"4300","86835953",NÃO HÁ CURVA,,,,,,,,,,,,,,
5B-016,FCTH,"61923000",SÃO JORGE DOS COQUEIROS,"1980","2025",-20.58638889,-48.42888889,JABORANDI,Jaborandi,RIB. DO TURVO,Baixo Pardo/ Grande,"12",Ribeirão Indaía,12_1,,SPÁguas,FLU,182,4° BPAmb,"4300","8684152",FOI REGISTRADOR MECÂNICO - DE 1997 A 2011 S/ VAZÕES,,ATIVO,,,,,,,,,,,,
5B-017,,,FAZENDA SANTA INEZ,"2005","2008",-20.68833333,-48.68444444,COLINA,Barretos,RIB. DO TURVO,Turvo/Grande,"15",Rio Cachoeirinha,15_4,,SPÁguas,FLU,6.2,4° BPAmb,"4300","868244",,,,,,,,,,,,,,,
5B-018,,,FAZ. SANTO EXPEDITO,"2005","2008",-20.62277778,-48.73472222,BARRETOS,Barretos,RIB. DAS PITANGUEIRAS,Baixo Pardo/ Grande,"12",Ribeirão Santana,12_3,,SPÁguas,FLU,19.2,4° BPAmb,"4300","8683592",SEM OBSERVADOR - CONTINUARAM AS MEDIÇÕES DE VAZÃO - PARALISADO,,,,,,,,,,,,,,
5B-019,,,FAZ. FLÓRIDA - MONT. CAPTAÇÃO,"2003","2006",-20.61611111,-48.71361111,BARRETOS,Barretos,RIB. DAS PITANGUEIRAS,Baixo Pardo/ Grande,"12",Ribeirão Santana,12_3,,SPÁguas,FLU,52.7,4° BPAmb,"4300","8683592",SEM OBSERVADOR - CONTINUARAM AS MEDIÇÕES DE VAZÃO - PARALISADO,,,,,,,,,,,,,,
5B-020,,,MONTANTE CAPIM,"2003","2006",-20.60527778,-48.68305556,BARRETOS,Barretos,RIB. DAS PITANGUEIRAS,Baixo Pardo/ Grande,"12",Córrego Água Limpa,12_2,,SPÁguas,FLU,64.5,4° BPAmb,"4300","8684134",SEM OBSERVADOR - LOGGER (SOLINST) RETIRADO - CONTINUARAM AS MEDIÇÕES DE VAZÃO - PARALISADO,,,,,,,,,,,,,,
5B-021,,,FOZ DO CÓRREGO DO CAPIM,"2003","2014",-20.6075,-48.67638889,BARRETOS,Barretos,CÓRR. DO CAPIM,Baixo Pardo/ Grande,"12",Córrego Água Limpa,12_2,,SPÁguas,FLU,33.6,4° BPAmb,"4300","8684134",SEM OBSERVADOR - LOGGER (SOLINST) RETIRADO - PARALISADO,,,,,,,,,,,,,,
5B-022,,,PONTE DA AMIZADE,"2007","2020",-20.60388889,-48.67361111,BARRETOS,Barretos,RIB. DAS PITANGUEIRAS,Baixo Pardo/ Grande,"12",Córrego Água Limpa,12_2,,SPÁguas,FLU,98.6,4° BPAmb,"4300","8684134",LOGGER (FCTH) / TELEMETRIA CHIP CELULAR - SEM OBSERVADOR - (ESTAÇÃO MISTA B5-074),,,,,,,,,,,,,,
5B-023,,,ADPM,"2003","2009",-20.5875,-48.6825,BARRETOS,Barretos,CÓRR. CAMPO REDONDO,Baixo Pardo/ Grande,"12",Córrego Água Limpa,12_2,,SPÁguas,FLU,7.4,4° BPAmb,"4300","8684134",,,,,,,,,,,,,,,
5B-024,,,CAPT. DE BARRETOS - PONTE,"2007","2008",-20.5875,-48.66194444,BARRETOS,Barretos,RIB. DAS PITANGUEIRAS,Baixo Pardo/ Grande,"12",Córrego Água Limpa,12_2,,SPÁguas,FLU,117,4° BPAmb,"4300","8684134",SEM OBSERVADOR - PARALISADO,,,,,,,,,,,,,,
5B-025,,,CAPT. DE BARRETOS - MONTANTE,"0","0",-20.58666667,-48.65611111,BARRETOS,Barretos,RIB. DAS PITANGUEIRAS,Baixo Pardo/ Grande,"12",Córrego Água Limpa,12_2,,SPÁguas,FLU,117.1,4° BPAmb,"4300","8684134",NÃO HÁ CURVA - PARALISADO,,,,,,,,,,,,,,
5B-026,,,FRIGORÍFICO FRIBOI - JUSANTE,"2003","2009",-20.58666667,-48.64888889,BARRETOS,Barretos,RIB. DAS PITANGUEIRAS,Baixo Pardo/ Grande,"12",Córrego Água Limpa,12_2,,SPÁguas,FLU,119.2,4° BPAmb,"4300","8684134",SEM OBSERVADOR - PARALISADO,,,,,,,,,,,,,,
5B-027,IPT,,FAZENDA SANTA LUZIA,"2005","2016",-20.57638889,-48.78388889,BARRETOS,Barretos,CÓRR. DAS PEDRAS/MANDI,Baixo Pardo/ Grande,"12",Ribeirão Santana,12_3,,SPÁguas,FLU,12,4° BPAmb,"4300","8683586",SEM OBSERVADOR - LOGGER (SOLINST) RETIRADO / VERTEDOR - PARALISADO,,PARALIZADO,,,,,,,,,,,,
5B-028,,,SÍTIO SANTA ALBERTINA,"2007","2018",-20.31388889,-48.74444444,COLÔMBIA,Colombia,R. VELHO,Baixo Pardo/ Grande,"12",Córrego Água Limpa,12_2,,SPÁguas,FLU,243,4° BPAmb,"4300","8684122",LOGGER (SOLINST) - SEM OBSERVADOR - REMANSO NA SEÇÃO DE MEDIÇÃO,,,,,,,,,,,,,,
5B-029,FCTH,,Ribeirão do Jardim em Guaíra / Guaíra,,,-20.371346,-48.277346,Guaíra,Guaira,Ribeirão do Jardim,,,,8_1,Rede Básica,SPÁguas,FLU,,4° BPAmb,"4300","868612",,,ATIVO,,,,,,,,,,,,
5B-500Z,FCTH,,SÍTIO SANTO ANGELO,"2007","2025",-20.59805556,-48.79,BARRETOS,Barretos,CÓRR. DAS PEDRAS/MANDI,Baixo Pardo/ Grande,"12",Ribeirão Santana,12_3,,SPÁguas,PIEZO,,4° BPAmb,"4300","8683587",,,ATIVO,,C,,,,,,,,,Bauru,565.943
5B-501Z,FCTH,,INSTITUTO FLORESTAL,"2009","2025",-20.5775,-48.78555556,BARRETOS,Barretos,CÓRR. DAS PEDRAS/MANDI,Baixo Pardo/ Grande,"12",Ribeirão Santana,12_3,,SPÁguas,PIEZO,,4° BPAmb,"4300","8683586",,,ATIVO,,C,,,,,,,,,Bauru,544.093
5B-502Z,FCTH,,SÍTIO MENINA IZILDINHA,"2012","2020",-20.67888889,-48.64888889,COLINA,Barretos,RIB. DO TURVO,Turvo/Grande,"15",Rio Cachoeirinha,15_4,,SPÁguas,PIEZO,,4° BPAmb,"4300","868244",SEM OBSERVADOR (AS LEITURAS GRAVADAS SÃO RETIRADAS DAS INSPEÇÕES),,ATIVO,,C,,,,,,,,,Bauru,568.361
5B-503Z,FCTH,,BEBEDOURO - SAAEB CENTENARIO,"2012","2022",-20.94388889,-48.54055556,BEBEDOURO,Bebedouro,CÓRR. DO RETIRO,Baixo Pardo/ Grande,"12",Ribeirão Indaía,12_1,,SPÁguas,PIEZO,,4° BPAmb,"4300","86841643",SEM OBSERVADOR (AS LEITURAS GRAVADAS SÃO RETIRADAS DAS INSPEÇÕES),,ATIVO,,C,,,,,,,,,Bauru,603.647
5B-504Z,FCTH,,ESTAÇÃO EXPERIMENTAL DE CITRICULTURA,"2018","2025",-20.89416667,-48.5675,BEBEDOURO,Bebedouro,RIB. DO MANDEMBO,Baixo Pardo/ Grande,"12",Ribeirão Indaía,12_1,,SPÁguas,PIEZO,,4° BPAmb,"4300","86841642",LOGGER (SOLINST) - SEM OBSERVADOR (AS LEITURAS GRAVADAS SÃO RETIRADAS DAS INSPEÇÕES),,ATIVO,,C,L,,,,,,,,Bauru,584.141
5B-505Z,FCTH,,SÍTIO SANTO ANTONIO,"2018","2025",-20.84777778,-49.1625,OLÍMPIA,Cedral,R. TURVO,Turvo/Grande,"15",Médio Turvo,15_5,,SPÁguas,PIEZO,,4° BPAmb,"4100","868256",LOGGER (SOLINST) - SEM OBSERVADOR (AS LEITURAS GRAVADAS SÃO RETIRADAS DAS INSPEÇÕES),,ATIVO,,C,L,,,,,,,,Bauru,447.209
5B-506Z,FCTH,,SÍTIO SÃO BENEDITO,"2023","2025",-20.74305556,-48.66472222,COLINA,Colina,RIB. DAS PALMEIRAS,Turvo/Grande,"15",Rio Cachoeirinha,15_4,,SPÁguas,PIEZO,,4° BPAmb,"4300","868246",LOGGER (SOLINST) - SEM OBSERVADOR (AS LEITURAS GRAVADAS SÃO RETIRADAS DAS INSPEÇÕES)-checar boca do poço,,ATIVO,,C,L,,,,,,,,Bauru,582
5B-507Z,FCTH,,SÍTIO SANTA RITA,"2023","2025",-20.58416667,-48.44388889,JABORANDI,Jaborandi,RIB. DO TURVO,Baixo Pardo/ Grande,"12",Ribeirão Indaía,12_1,,SPÁguas,PIEZO,,4° BPAmb,"4300","8684152",LOGGER (SOLINST) - SEM OBSERVADOR (AS LEITURAS GRAVADAS SÃO RETIRADAS DAS INSPEÇÕES)-checar boca do poço,,ATIVO,,C,L,,,,,,,,Serra Geral,558
5C-004,,,FAZENDA STA HELOISA,"1971","1975",-21.68333333,-49,BORBOREMA,Borborema,R. DOS PORCOS,Tietê/Batalha,"16",Rio São Lourenço/ Rio dos Porcos,16_1,,SPÁguas,FLU,2743,4° BPAmb,"4400","86623",,,,,,,,,,,,,,,
5C-013,FCTH,"62772500",JACARÉ-GUAÇU-SP-255,"1969","2024",-21.86722222,-48.32972222,ARARAQUARA,Boa Esperança do Sul,R. JACARÉ-GUAÇU,Tietê/Jacaré,"13",Médio Jacaré-Guaçu,13_2,,SPÁguas,FLU,1867,4° BPAmb,"4400","866477",LOGGER (FCTH) - (ESTAÇÃO MISTA C5-124),,ATIVO,,,L,,Q,,,,,,,
5C-014,,,FAZENDA CANDOCA,"1960","1961",-21.83333333,-48.56,ARARAQUARA,Gaviao Peixoto,R. JACARÉ-GUAÇU,Tietê/Jacaré,"13",Baixo Jacaré-Guaçu,13_3,,SPÁguas,FLU,2418,4° BPAmb,"4400","86645",,,,,,,,,,,,,,,
5C-015,IPT,,ARARAQUARA URBANO,"0","0",-21.80888889,-48.20888889,ARARAQUARA,Araraquara,RIB. DO OURO,Tietê/Jacaré,"13",Médio Jacaré-Guaçu,13_2,,SPÁguas,FLU,56,4° BPAmb,"4400","866476",LOGGER (SOLINST) PARALISADO - SEM OBSERVADOR - NÃO HÁ CURVA (POUCAS MEDIÇÕES DE VAZÃO),,PARALIZADO,,,,,,,,,,,,
5C-017,FCTH,"61913500",FAZENDA SANTA TEREZINHA,"1969","2024",-21.20111111,-48.04916667,SERTÃOZINHO,Barrinha,RIB. DA ONÇA,Mogi-Guaçu,"9",Médio Mogi Inferior,9_4,,SPÁguas,FLU,918,4° BPAmb,"4400","868441",DE 1998 A 2000 E DE 2005 A 2007 S/ VAZÕES,,ATIVO,,,,,,,,,,,,
5C-019,FCTH,"61956001",PALMARES PAULISTA,"1970","2024",-21.07777778,-48.96,PALMARES PAULISTA,Catanduva,RIB. DA ONÇA,Turvo/Grande,"15",Rio São Domingos,15_3,,SPÁguas,FLU,620,4° BPAmb,"4100","868263",LOGGER (FCTH ) / TELEMETRIA CHIP CELULAR - (ESTAÇÃO MISTA C5-084),,ATIVO,,O,L,T,Q,,,,,,,
5C-020,,,FAZENDA PAU D'ALHO,"1970","1979",-21.9,-48.86,ITAJU,Ibitinga,R. JACARÉ-PEPIRA,Tietê/Jacaré,"13",Rio Tietê/Rio Claro,13_9,,SPÁguas,FLU,2395,4° BPAmb,"4400","8665211",,,,,,,,,,,,,,,
